{
"type": "FeatureCollection",
"name": "concelhos_points",
"crs": { "type": "name", "properties": { "name": "urn:ogc:def:crs:OGC:1.3:CRS84" } },
"features": [
{ "type": "Feature", "properties": { "ID_0": 182, "ISO": "PRT", "NAME_0": "Portugal", "ID_1": 1, "NAME_1": "Évora", "ID_2": 1, "NAME_2": "Évora", "HASC_2": "PT.EV.EV", "CCN_2": 0, "CCA_2": "0705", "TYPE_2": "Concelho", "ENGTYPE_2": "Municipality", "NL_NAME_2": null, "VARNAME_2": null }, "geometry": { "type": "Point", "coordinates": [ -7.87023, 38.53314 ] } },
{ "type": "Feature", "properties": { "ID_0": 182, "ISO": "PRT", "NAME_0": "Portugal", "ID_1": 1, "NAME_1": "Évora", "ID_2": 2, "NAME_2": "Alandroal", "HASC_2": "PT.EV.AL", "CCN_2": 0, "CCA_2": "0701", "TYPE_2": "Concelho", "ENGTYPE_2": "Municipality", "NL_NAME_2": null, "VARNAME_2": null }, "geometry": { "type": "Point", "coordinates": [ -7.3829, 38.61577 ] } },
{ "type": "Feature", "properties": { "ID_0": 182, "ISO": "PRT", "NAME_0": "Portugal", "ID_1": 1, "NAME_1": "Évora", "ID_2": 3, "NAME_2": "Arraiolos", "HASC_2": "PT.EV.AR", "CCN_2": 0, "CCA_2": "0702", "TYPE_2": "Concelho", "ENGTYPE_2": "Municipality", "NL_NAME_2": null, "VARNAME_2": null }, "geometry": { "type": "Point", "coordinates": [ -7.91638, 38.78675 ] } },
{ "type": "Feature", "properties": { "ID_0": 182, "ISO": "PRT", "NAME_0": "Portugal", "ID_1": 1, "NAME_1": "Évora", "ID_2": 4, "NAME_2": "Borba", "HASC_2": "PT.EV.BO", "CCN_2": 0, "CCA_2": "0703", "TYPE_2": "Concelho", "ENGTYPE_2": "Municipality", "NL_NAME_2": null, "VARNAME_2": null }, "geometry": { "type": "Point", "coordinates": [ -7.46935, 38.81652 ] } },
{ "type": "Feature", "properties": { "ID_0": 182, "ISO": "PRT", "NAME_0": "Portugal", "ID_1": 1, "NAME_1": "Évora", "ID_2": 5, "NAME_2": "Estremoz", "HASC_2": "PT.EV.ES", "CCN_2": 0, "CCA_2": "0704", "TYPE_2": "Concelho", "ENGTYPE_2": "Municipality", "NL_NAME_2": null, "VARNAME_2": null }, "geometry": { "type": "Point", "coordinates": [ -7.61368, 38.84545 ] } },
{ "type": "Feature", "properties": { "ID_0": 182, "ISO": "PRT", "NAME_0": "Portugal", "ID_1": 1, "NAME_1": "Évora", "ID_2": 6, "NAME_2": "Montemor-o-Novo", "HASC_2": "PT.EV.MN", "CCN_2": 0, "CCA_2": "0706", "TYPE_2": "Concelho", "ENGTYPE_2": "Municipality", "NL_NAME_2": null, "VARNAME_2": null }, "geometry": { "type": "Point", "coordinates": [ -8.29615, 38.64857 ] } },
{ "type": "Feature", "properties": { "ID_0": 182, "ISO": "PRT", "NAME_0": "Portugal", "ID_1": 1, "NAME_1": "Évora", "ID_2": 7, "NAME_2": "Mora", "HASC_2": "PT.EV.MR", "CCN_2": 0, "CCA_2": "0707", "TYPE_2": "Concelho", "ENGTYPE_2": "Municipality", "NL_NAME_2": null, "VARNAME_2": null }, "geometry": { "type": "Point", "coordinates": [ -8.08883, 38.9189 ] } },
{ "type": "Feature", "properties": { "ID_0": 182, "ISO": "PRT", "NAME_0": "Portugal", "ID_1": 1, "NAME_1": "Évora", "ID_2": 8, "NAME_2": "Mourão", "HASC_2": "PT.EV.MO", "CCN_2": 0, "CCA_2": "0708", "TYPE_2": "Concelho", "ENGTYPE_2": "Municipality", "NL_NAME_2": null, "VARNAME_2": null }, "geometry": { "type": "Point", "coordinates": [ -7.27495, 38.31821 ] } },
{ "type": "Feature", "properties": { "ID_0": 182, "ISO": "PRT", "NAME_0": "Portugal", "ID_1": 1, "NAME_1": "Évora", "ID_2": 9, "NAME_2": "Portel", "HASC_2": "PT.EV.PO", "CCN_2": 0, "CCA_2": "0709", "TYPE_2": "Concelho", "ENGTYPE_2": "Municipality", "NL_NAME_2": null, "VARNAME_2": null }, "geometry": { "type": "Point", "coordinates": [ -7.69666, 38.30183 ] } },
{ "type": "Feature", "properties": { "ID_0": 182, "ISO": "PRT", "NAME_0": "Portugal", "ID_1": 1, "NAME_1": "Évora", "ID_2": 10, "NAME_2": "Redondo", "HASC_2": "PT.EV.RD", "CCN_2": 0, "CCA_2": "0710", "TYPE_2": "Concelho", "ENGTYPE_2": "Municipality", "NL_NAME_2": null, "VARNAME_2": null }, "geometry": { "type": "Point", "coordinates": [ -7.59879, 38.62561 ] } },
{ "type": "Feature", "properties": { "ID_0": 182, "ISO": "PRT", "NAME_0": "Portugal", "ID_1": 1, "NAME_1": "Évora", "ID_2": 11, "NAME_2": "Reguengos de Monsaraz", "HASC_2": "PT.EV.RM", "CCN_2": 0, "CCA_2": "0711", "TYPE_2": "Concelho", "ENGTYPE_2": "Municipality", "NL_NAME_2": null, "VARNAME_2": null }, "geometry": { "type": "Point", "coordinates": [ -7.47743, 38.39618 ] } },
{ "type": "Feature", "properties": { "ID_0": 182, "ISO": "PRT", "NAME_0": "Portugal", "ID_1": 1, "NAME_1": "Évora", "ID_2": 12, "NAME_2": "Vendas Novas", "HASC_2": "PT.EV.VN", "CCN_2": 0, "CCA_2": "0712", "TYPE_2": "Concelho", "ENGTYPE_2": "Municipality", "NL_NAME_2": null, "VARNAME_2": null }, "geometry": { "type": "Point", "coordinates": [ -8.5148, 38.655 ] } },
{ "type": "Feature", "properties": { "ID_0": 182, "ISO": "PRT", "NAME_0": "Portugal", "ID_1": 1, "NAME_1": "Évora", "ID_2": 13, "NAME_2": "Viana do Alentejo", "HASC_2": "PT.EV.VA", "CCN_2": 0, "CCA_2": "0713", "TYPE_2": "Concelho", "ENGTYPE_2": "Municipality", "NL_NAME_2": null, "VARNAME_2": null }, "geometry": { "type": "Point", "coordinates": [ -8.12241, 38.38459 ] } },
{ "type": "Feature", "properties": { "ID_0": 182, "ISO": "PRT", "NAME_0": "Portugal", "ID_1": 1, "NAME_1": "Évora", "ID_2": 14, "NAME_2": "Vila Viçosa", "HASC_2": "PT.EV.VV", "CCN_2": 0, "CCA_2": "0714", "TYPE_2": "Concelho", "ENGTYPE_2": "Municipality", "NL_NAME_2": null, "VARNAME_2": null }, "geometry": { "type": "Point", "coordinates": [ -7.35317, 38.76889 ] } },
{ "type": "Feature", "properties": { "ID_0": 182, "ISO": "PRT", "NAME_0": "Portugal", "ID_1": 2, "NAME_1": "Aveiro", "ID_2": 15, "NAME_2": "Águeda", "HASC_2": "PT.AV.AG", "CCN_2": 0, "CCA_2": "0101", "TYPE_2": "Concelho", "ENGTYPE_2": "Municipality", "NL_NAME_2": null, "VARNAME_2": null }, "geometry": { "type": "Point", "coordinates": [ -8.39563, 40.58601 ] } },
{ "type": "Feature", "properties": { "ID_0": 182, "ISO": "PRT", "NAME_0": "Portugal", "ID_1": 2, "NAME_1": "Aveiro", "ID_2": 16, "NAME_2": "Ílhavo", "HASC_2": "PT.AV.IL", "CCN_2": 0, "CCA_2": "0110", "TYPE_2": "Concelho", "ENGTYPE_2": "Municipality", "NL_NAME_2": null, "VARNAME_2": null }, "geometry": { "type": "Point", "coordinates": [ -8.69947, 40.6053 ] } },
{ "type": "Feature", "properties": { "ID_0": 182, "ISO": "PRT", "NAME_0": "Portugal", "ID_1": 2, "NAME_1": "Aveiro", "ID_2": 17, "NAME_2": "Albergaria-a-Velha", "HASC_2": "PT.AV.AL", "CCN_2": 0, "CCA_2": "0102", "TYPE_2": "Concelho", "ENGTYPE_2": "Municipality", "NL_NAME_2": null, "VARNAME_2": null }, "geometry": { "type": "Point", "coordinates": [ -8.49486, 40.7 ] } },
{ "type": "Feature", "properties": { "ID_0": 182, "ISO": "PRT", "NAME_0": "Portugal", "ID_1": 2, "NAME_1": "Aveiro", "ID_2": 18, "NAME_2": "Anadia", "HASC_2": "PT.AV.AN", "CCN_2": 0, "CCA_2": "0103", "TYPE_2": "Concelho", "ENGTYPE_2": "Municipality", "NL_NAME_2": null, "VARNAME_2": null }, "geometry": { "type": "Point", "coordinates": [ -8.44278, 40.45262 ] } },
{ "type": "Feature", "properties": { "ID_0": 182, "ISO": "PRT", "NAME_0": "Portugal", "ID_1": 2, "NAME_1": "Aveiro", "ID_2": 19, "NAME_2": "Arouca", "HASC_2": "PT.AV.AR", "CCN_2": 0, "CCA_2": "0104", "TYPE_2": "Concelho", "ENGTYPE_2": "Municipality", "NL_NAME_2": null, "VARNAME_2": null }, "geometry": { "type": "Point", "coordinates": [ -8.25172, 40.92876 ] } },
{ "type": "Feature", "properties": { "ID_0": 182, "ISO": "PRT", "NAME_0": "Portugal", "ID_1": 2, "NAME_1": "Aveiro", "ID_2": 20, "NAME_2": "Aveiro", "HASC_2": "PT.AV.AV", "CCN_2": 0, "CCA_2": "0105", "TYPE_2": "Concelho", "ENGTYPE_2": "Municipality", "NL_NAME_2": null, "VARNAME_2": null }, "geometry": { "type": "Point", "coordinates": [ -8.62112, 40.63719 ] } },
{ "type": "Feature", "properties": { "ID_0": 182, "ISO": "PRT", "NAME_0": "Portugal", "ID_1": 2, "NAME_1": "Aveiro", "ID_2": 21, "NAME_2": "Castelo de Paiva", "HASC_2": "PT.AV.CP", "CCN_2": 0, "CCA_2": "0106", "TYPE_2": "Concelho", "ENGTYPE_2": "Municipality", "NL_NAME_2": null, "VARNAME_2": null }, "geometry": { "type": "Point", "coordinates": [ -8.30303, 41.01825 ] } },
{ "type": "Feature", "properties": { "ID_0": 182, "ISO": "PRT", "NAME_0": "Portugal", "ID_1": 2, "NAME_1": "Aveiro", "ID_2": 22, "NAME_2": "Espinho", "HASC_2": "PT.AV.EN", "CCN_2": 0, "CCA_2": "0107", "TYPE_2": "Concelho", "ENGTYPE_2": "Municipality", "NL_NAME_2": null, "VARNAME_2": null }, "geometry": { "type": "Point", "coordinates": [ -8.62578, 40.99478 ] } },
{ "type": "Feature", "properties": { "ID_0": 182, "ISO": "PRT", "NAME_0": "Portugal", "ID_1": 2, "NAME_1": "Aveiro", "ID_2": 23, "NAME_2": "Estarreja", "HASC_2": "PT.AV.ER", "CCN_2": 0, "CCA_2": "0108", "TYPE_2": "Concelho", "ENGTYPE_2": "Municipality", "NL_NAME_2": null, "VARNAME_2": null }, "geometry": { "type": "Point", "coordinates": [ -8.57489, 40.76115 ] } },
{ "type": "Feature", "properties": { "ID_0": 182, "ISO": "PRT", "NAME_0": "Portugal", "ID_1": 2, "NAME_1": "Aveiro", "ID_2": 24, "NAME_2": "Mealhada", "HASC_2": "PT.AV.ME", "CCN_2": 0, "CCA_2": "0111", "TYPE_2": "Concelho", "ENGTYPE_2": "Municipality", "NL_NAME_2": null, "VARNAME_2": null }, "geometry": { "type": "Point", "coordinates": [ -8.44103, 40.35377 ] } },
{ "type": "Feature", "properties": { "ID_0": 182, "ISO": "PRT", "NAME_0": "Portugal", "ID_1": 2, "NAME_1": "Aveiro", "ID_2": 25, "NAME_2": "Murtosa", "HASC_2": "PT.AV.MU", "CCN_2": 0, "CCA_2": "0112", "TYPE_2": "Concelho", "ENGTYPE_2": "Municipality", "NL_NAME_2": null, "VARNAME_2": null }, "geometry": { "type": "Point", "coordinates": [ -8.67019, 40.76026 ] } },
{ "type": "Feature", "properties": { "ID_0": 182, "ISO": "PRT", "NAME_0": "Portugal", "ID_1": 2, "NAME_1": "Aveiro", "ID_2": 26, "NAME_2": "Oliveira de Azeméis", "HASC_2": "PT.AV.OA", "CCN_2": 0, "CCA_2": "0113", "TYPE_2": "Concelho", "ENGTYPE_2": "Municipality", "NL_NAME_2": null, "VARNAME_2": null }, "geometry": { "type": "Point", "coordinates": [ -8.46838, 40.84223 ] } },
{ "type": "Feature", "properties": { "ID_0": 182, "ISO": "PRT", "NAME_0": "Portugal", "ID_1": 2, "NAME_1": "Aveiro", "ID_2": 27, "NAME_2": "Oliveira do Bairro", "HASC_2": "PT.AV.OB", "CCN_2": 0, "CCA_2": "0114", "TYPE_2": "Concelho", "ENGTYPE_2": "Municipality", "NL_NAME_2": null, "VARNAME_2": null }, "geometry": { "type": "Point", "coordinates": [ -8.55152, 40.51585 ] } },
{ "type": "Feature", "properties": { "ID_0": 182, "ISO": "PRT", "NAME_0": "Portugal", "ID_1": 2, "NAME_1": "Aveiro", "ID_2": 28, "NAME_2": "Ovar", "HASC_2": "PT.AV.OV", "CCN_2": 0, "CCA_2": "0115", "TYPE_2": "Concelho", "ENGTYPE_2": "Municipality", "NL_NAME_2": null, "VARNAME_2": null }, "geometry": { "type": "Point", "coordinates": [ -8.61844, 40.87787 ] } },
{ "type": "Feature", "properties": { "ID_0": 182, "ISO": "PRT", "NAME_0": "Portugal", "ID_1": 2, "NAME_1": "Aveiro", "ID_2": 29, "NAME_2": "São João da Madeira", "HASC_2": "PT.AV.SJ", "CCN_2": 0, "CCA_2": "0116", "TYPE_2": "Concelho", "ENGTYPE_2": "Municipality", "NL_NAME_2": null, "VARNAME_2": null }, "geometry": { "type": "Point", "coordinates": [ -8.49036, 40.89563 ] } },
{ "type": "Feature", "properties": { "ID_0": 182, "ISO": "PRT", "NAME_0": "Portugal", "ID_1": 2, "NAME_1": "Aveiro", "ID_2": 30, "NAME_2": "Santa Maria da Feira", "HASC_2": "PT.AV.SM", "CCN_2": 0, "CCA_2": "0109", "TYPE_2": "Concelho", "ENGTYPE_2": "Municipality", "NL_NAME_2": null, "VARNAME_2": "Feira" }, "geometry": { "type": "Point", "coordinates": [ -8.51047, 40.96689 ] } },
{ "type": "Feature", "properties": { "ID_0": 182, "ISO": "PRT", "NAME_0": "Portugal", "ID_1": 2, "NAME_1": "Aveiro", "ID_2": 31, "NAME_2": "Sever do Vouga", "HASC_2": "PT.AV.SV", "CCN_2": 0, "CCA_2": "0117", "TYPE_2": "Concelho", "ENGTYPE_2": "Municipality", "NL_NAME_2": null, "VARNAME_2": null }, "geometry": { "type": "Point", "coordinates": [ -8.35175, 40.72441 ] } },
{ "type": "Feature", "properties": { "ID_0": 182, "ISO": "PRT", "NAME_0": "Portugal", "ID_1": 2, "NAME_1": "Aveiro", "ID_2": 32, "NAME_2": "Vagos", "HASC_2": "PT.AV.VG", "CCN_2": 0, "CCA_2": "0118", "TYPE_2": "Concelho", "ENGTYPE_2": "Municipality", "NL_NAME_2": null, "VARNAME_2": null }, "geometry": { "type": "Point", "coordinates": [ -8.68955, 40.51546 ] } },
{ "type": "Feature", "properties": { "ID_0": 182, "ISO": "PRT", "NAME_0": "Portugal", "ID_1": 2, "NAME_1": "Aveiro", "ID_2": 33, "NAME_2": "Vale de Cambra", "HASC_2": "PT.AV.VC", "CCN_2": 0, "CCA_2": "0119", "TYPE_2": "Concelho", "ENGTYPE_2": "Municipality", "NL_NAME_2": null, "VARNAME_2": null }, "geometry": { "type": "Point", "coordinates": [ -8.33637, 40.83355 ] } },
{ "type": "Feature", "properties": { "ID_0": 182, "ISO": "PRT", "NAME_0": "Portugal", "ID_1": 3, "NAME_1": "Azores", "ID_2": 34, "NAME_2": "Angra do Heroísmo", "HASC_2": "PT.AC.AH", "CCN_2": 0, "CCA_2": "4301", "TYPE_2": "Concelho", "ENGTYPE_2": "Municipality", "NL_NAME_2": "'ɐ̃gɾɐ du eɾu'iʒmu", "VARNAME_2": "Angra" }, "geometry": { "type": "Point", "coordinates": [ -27.25, 38.70833 ] } },
{ "type": "Feature", "properties": { "ID_0": 182, "ISO": "PRT", "NAME_0": "Portugal", "ID_1": 3, "NAME_1": "Azores", "ID_2": 35, "NAME_2": "Calheta", "HASC_2": "PT.AC.CA", "CCN_2": 0, "CCA_2": "4501", "TYPE_2": "Concelho", "ENGTYPE_2": "Municipality", "NL_NAME_2": null, "VARNAME_2": null }, "geometry": { "type": "Point", "coordinates": [ -27.91534, 38.59432 ] } },
{ "type": "Feature", "properties": { "ID_0": 182, "ISO": "PRT", "NAME_0": "Portugal", "ID_1": 3, "NAME_1": "Azores", "ID_2": 36, "NAME_2": "Corvo", "HASC_2": "PT.AC.CO", "CCN_2": 0, "CCA_2": "4901", "TYPE_2": "Concelho", "ENGTYPE_2": "Municipality", "NL_NAME_2": null, "VARNAME_2": "Korvu" }, "geometry": { "type": "Point", "coordinates": [ -31.10522, 39.6991 ] } },
{ "type": "Feature", "properties": { "ID_0": 182, "ISO": "PRT", "NAME_0": "Portugal", "ID_1": 3, "NAME_1": "Azores", "ID_2": 37, "NAME_2": "Horta", "HASC_2": "PT.AC.HO", "CCN_2": 0, "CCA_2": "4701", "TYPE_2": "Concelho", "ENGTYPE_2": "Municipality", "NL_NAME_2": null, "VARNAME_2": null }, "geometry": { "type": "Point", "coordinates": [ -28.70133, 38.57822 ] } },
{ "type": "Feature", "properties": { "ID_0": 182, "ISO": "PRT", "NAME_0": "Portugal", "ID_1": 3, "NAME_1": "Azores", "ID_2": 38, "NAME_2": "Lagoa", "HASC_2": "PT.AC.LG", "CCN_2": 0, "CCA_2": "4201", "TYPE_2": "Concelho", "ENGTYPE_2": "Municipality", "NL_NAME_2": null, "VARNAME_2": null }, "geometry": { "type": "Point", "coordinates": [ -25.53628, 37.74492 ] } },
{ "type": "Feature", "properties": { "ID_0": 182, "ISO": "PRT", "NAME_0": "Portugal", "ID_1": 3, "NAME_1": "Azores", "ID_2": 39, "NAME_2": "Lajes das Flores", "HASC_2": "PT.AC.LF", "CCN_2": 0, "CCA_2": "4801", "TYPE_2": "Concelho", "ENGTYPE_2": "Municipality", "NL_NAME_2": null, "VARNAME_2": null }, "geometry": { "type": "Point", "coordinates": [ -31.21358, 39.41284 ] } },
{ "type": "Feature", "properties": { "ID_0": 182, "ISO": "PRT", "NAME_0": "Portugal", "ID_1": 3, "NAME_1": "Azores", "ID_2": 40, "NAME_2": "Lajes do Pico", "HASC_2": "PT.AC.LP", "CCN_2": 0, "CCA_2": "4601", "TYPE_2": "Concelho", "ENGTYPE_2": "Municipality", "NL_NAME_2": null, "VARNAME_2": null }, "geometry": { "type": "Point", "coordinates": [ -28.225, 38.43007 ] } },
{ "type": "Feature", "properties": { "ID_0": 182, "ISO": "PRT", "NAME_0": "Portugal", "ID_1": 3, "NAME_1": "Azores", "ID_2": 41, "NAME_2": "Madalena", "HASC_2": "PT.AC.MA", "CCN_2": 0, "CCA_2": "4602", "TYPE_2": "Concelho", "ENGTYPE_2": "Municipality", "NL_NAME_2": null, "VARNAME_2": null }, "geometry": { "type": "Point", "coordinates": [ -28.46372, 38.48588 ] } },
{ "type": "Feature", "properties": { "ID_0": 182, "ISO": "PRT", "NAME_0": "Portugal", "ID_1": 3, "NAME_1": "Azores", "ID_2": 42, "NAME_2": "Nordeste", "HASC_2": "PT.AC.NO", "CCN_2": 0, "CCA_2": "4202", "TYPE_2": "Concelho", "ENGTYPE_2": "Municipality", "NL_NAME_2": null, "VARNAME_2": null }, "geometry": { "type": "Point", "coordinates": [ -25.21736, 37.8226 ] } },
{ "type": "Feature", "properties": { "ID_0": 182, "ISO": "PRT", "NAME_0": "Portugal", "ID_1": 3, "NAME_1": "Azores", "ID_2": 43, "NAME_2": "Ponta Delgada", "HASC_2": "PT.AC.PD", "CCN_2": 0, "CCA_2": "4203", "TYPE_2": "Concelho", "ENGTYPE_2": "Municipality", "NL_NAME_2": null, "VARNAME_2": null }, "geometry": { "type": "Point", "coordinates": [ -25.72913, 37.81844 ] } },
{ "type": "Feature", "properties": { "ID_0": 182, "ISO": "PRT", "NAME_0": "Portugal", "ID_1": 3, "NAME_1": "Azores", "ID_2": 44, "NAME_2": "Povoação", "HASC_2": "PT.AC.PC", "CCN_2": 0, "CCA_2": "4204", "TYPE_2": "Concelho", "ENGTYPE_2": "Municipality", "NL_NAME_2": null, "VARNAME_2": null }, "geometry": { "type": "Point", "coordinates": [ -25.26064, 37.76501 ] } },
{ "type": "Feature", "properties": { "ID_0": 182, "ISO": "PRT", "NAME_0": "Portugal", "ID_1": 3, "NAME_1": "Azores", "ID_2": 45, "NAME_2": "Praia da Vitória", "HASC_2": "PT.AC.PV", "CCN_2": 0, "CCA_2": "4302", "TYPE_2": "Concelho", "ENGTYPE_2": "Municipality", "NL_NAME_2": null, "VARNAME_2": null }, "geometry": { "type": "Point", "coordinates": [ -27.15646, 38.74696 ] } },
{ "type": "Feature", "properties": { "ID_0": 182, "ISO": "PRT", "NAME_0": "Portugal", "ID_1": 3, "NAME_1": "Azores", "ID_2": 46, "NAME_2": "Ribeira Grande", "HASC_2": "PT.AC.RG", "CCN_2": 0, "CCA_2": "4205", "TYPE_2": "Concelho", "ENGTYPE_2": "Municipality", "NL_NAME_2": null, "VARNAME_2": null }, "geometry": { "type": "Point", "coordinates": [ -25.45542, 37.80335 ] } },
{ "type": "Feature", "properties": { "ID_0": 182, "ISO": "PRT", "NAME_0": "Portugal", "ID_1": 3, "NAME_1": "Azores", "ID_2": 47, "NAME_2": "São Roque do Pico", "HASC_2": "PT.AC.SP", "CCN_2": 0, "CCA_2": "4603", "TYPE_2": "Concelho", "ENGTYPE_2": "Municipality", "NL_NAME_2": null, "VARNAME_2": null }, "geometry": { "type": "Point", "coordinates": [ -28.31745, 38.49547 ] } },
{ "type": "Feature", "properties": { "ID_0": 182, "ISO": "PRT", "NAME_0": "Portugal", "ID_1": 3, "NAME_1": "Azores", "ID_2": 48, "NAME_2": "Santa Cruz da Graciosa", "HASC_2": "PT.AC.SG", "CCN_2": 0, "CCA_2": "4401", "TYPE_2": "Concelho", "ENGTYPE_2": "Municipality", "NL_NAME_2": null, "VARNAME_2": null }, "geometry": { "type": "Point", "coordinates": [ -28.01133, 39.05229 ] } },
{ "type": "Feature", "properties": { "ID_0": 182, "ISO": "PRT", "NAME_0": "Portugal", "ID_1": 3, "NAME_1": "Azores", "ID_2": 49, "NAME_2": "Santa Cruz das Flores", "HASC_2": "PT.AC.SF", "CCN_2": 0, "CCA_2": "4802", "TYPE_2": "Concelho", "ENGTYPE_2": "Municipality", "NL_NAME_2": null, "VARNAME_2": null }, "geometry": { "type": "Point", "coordinates": [ -31.19154, 39.47068 ] } },
{ "type": "Feature", "properties": { "ID_0": 182, "ISO": "PRT", "NAME_0": "Portugal", "ID_1": 3, "NAME_1": "Azores", "ID_2": 50, "NAME_2": "Velas", "HASC_2": "PT.AC.VE", "CCN_2": 0, "CCA_2": "4502", "TYPE_2": "Concelho", "ENGTYPE_2": "Municipality", "NL_NAME_2": null, "VARNAME_2": null }, "geometry": { "type": "Point", "coordinates": [ -28.15161, 38.68335 ] } },
{ "type": "Feature", "properties": { "ID_0": 182, "ISO": "PRT", "NAME_0": "Portugal", "ID_1": 3, "NAME_1": "Azores", "ID_2": 51, "NAME_2": "Vila do Porto", "HASC_2": "PT.AC.VP", "CCN_2": 0, "CCA_2": "4101", "TYPE_2": "Concelho", "ENGTYPE_2": "Municipality", "NL_NAME_2": null, "VARNAME_2": null }, "geometry": { "type": "Point", "coordinates": [ -25.09982, 36.97133 ] } },
{ "type": "Feature", "properties": { "ID_0": 182, "ISO": "PRT", "NAME_0": "Portugal", "ID_1": 3, "NAME_1": "Azores", "ID_2": 52, "NAME_2": "Vila Franca do Campo", "HASC_2": "PT.AC.VC", "CCN_2": 0, "CCA_2": "4206", "TYPE_2": "Concelho", "ENGTYPE_2": "Municipality", "NL_NAME_2": null, "VARNAME_2": null }, "geometry": { "type": "Point", "coordinates": [ -25.4182, 37.74359 ] } },
{ "type": "Feature", "properties": { "ID_0": 182, "ISO": "PRT", "NAME_0": "Portugal", "ID_1": 4, "NAME_1": "Beja", "ID_2": 53, "NAME_2": "Aljustrel", "HASC_2": "PT.BE.AJ", "CCN_2": 0, "CCA_2": "0201", "TYPE_2": "Concelho", "ENGTYPE_2": "Municipality", "NL_NAME_2": null, "VARNAME_2": null }, "geometry": { "type": "Point", "coordinates": [ -8.18812, 37.88786 ] } },
{ "type": "Feature", "properties": { "ID_0": 182, "ISO": "PRT", "NAME_0": "Portugal", "ID_1": 4, "NAME_1": "Beja", "ID_2": 54, "NAME_2": "Almodôvar", "HASC_2": "PT.BE.AM", "CCN_2": 0, "CCA_2": "0202", "TYPE_2": "Concelho", "ENGTYPE_2": "Municipality", "NL_NAME_2": null, "VARNAME_2": null }, "geometry": { "type": "Point", "coordinates": [ -8.08448, 37.475 ] } },
{ "type": "Feature", "properties": { "ID_0": 182, "ISO": "PRT", "NAME_0": "Portugal", "ID_1": 4, "NAME_1": "Beja", "ID_2": 55, "NAME_2": "Alvito", "HASC_2": "PT.BE.AV", "CCN_2": 0, "CCA_2": "0203", "TYPE_2": "Concelho", "ENGTYPE_2": "Municipality", "NL_NAME_2": null, "VARNAME_2": null }, "geometry": { "type": "Point", "coordinates": [ -8.0415, 38.24407 ] } },
{ "type": "Feature", "properties": { "ID_0": 182, "ISO": "PRT", "NAME_0": "Portugal", "ID_1": 4, "NAME_1": "Beja", "ID_2": 56, "NAME_2": "Barrancos", "HASC_2": "PT.BE.BA", "CCN_2": 0, "CCA_2": "0204", "TYPE_2": "Concelho", "ENGTYPE_2": "Municipality", "NL_NAME_2": null, "VARNAME_2": null }, "geometry": { "type": "Point", "coordinates": [ -7.05221, 38.14819 ] } },
{ "type": "Feature", "properties": { "ID_0": 182, "ISO": "PRT", "NAME_0": "Portugal", "ID_1": 4, "NAME_1": "Beja", "ID_2": 57, "NAME_2": "Beja", "HASC_2": "PT.BE.BE", "CCN_2": 0, "CCA_2": "0205", "TYPE_2": "Concelho", "ENGTYPE_2": "Municipality", "NL_NAME_2": null, "VARNAME_2": null }, "geometry": { "type": "Point", "coordinates": [ -7.85587, 37.96254 ] } },
{ "type": "Feature", "properties": { "ID_0": 182, "ISO": "PRT", "NAME_0": "Portugal", "ID_1": 4, "NAME_1": "Beja", "ID_2": 58, "NAME_2": "Castro Verde", "HASC_2": "PT.BE.CV", "CCN_2": 0, "CCA_2": "0206", "TYPE_2": "Concelho", "ENGTYPE_2": "Municipality", "NL_NAME_2": null, "VARNAME_2": null }, "geometry": { "type": "Point", "coordinates": [ -8.02829, 37.70471 ] } },
{ "type": "Feature", "properties": { "ID_0": 182, "ISO": "PRT", "NAME_0": "Portugal", "ID_1": 4, "NAME_1": "Beja", "ID_2": 59, "NAME_2": "Cuba", "HASC_2": "PT.BE.CU", "CCN_2": 0, "CCA_2": "0207", "TYPE_2": "Concelho", "ENGTYPE_2": "Municipality", "NL_NAME_2": null, "VARNAME_2": null }, "geometry": { "type": "Point", "coordinates": [ -7.91348, 38.19278 ] } },
{ "type": "Feature", "properties": { "ID_0": 182, "ISO": "PRT", "NAME_0": "Portugal", "ID_1": 4, "NAME_1": "Beja", "ID_2": 60, "NAME_2": "Ferreira do Alentejo", "HASC_2": "PT.BE.FA", "CCN_2": 0, "CCA_2": "0208", "TYPE_2": "Concelho", "ENGTYPE_2": "Municipality", "NL_NAME_2": null, "VARNAME_2": null }, "geometry": { "type": "Point", "coordinates": [ -8.18886, 38.08825 ] } },
{ "type": "Feature", "properties": { "ID_0": 182, "ISO": "PRT", "NAME_0": "Portugal", "ID_1": 4, "NAME_1": "Beja", "ID_2": 61, "NAME_2": "Mértola", "HASC_2": "PT.BE.ME", "CCN_2": 0, "CCA_2": "0209", "TYPE_2": "Concelho", "ENGTYPE_2": "Municipality", "NL_NAME_2": null, "VARNAME_2": null }, "geometry": { "type": "Point", "coordinates": [ -7.70658, 37.6468 ] } },
{ "type": "Feature", "properties": { "ID_0": 182, "ISO": "PRT", "NAME_0": "Portugal", "ID_1": 4, "NAME_1": "Beja", "ID_2": 62, "NAME_2": "Moura", "HASC_2": "PT.BE.MO", "CCN_2": 0, "CCA_2": "0210", "TYPE_2": "Concelho", "ENGTYPE_2": "Municipality", "NL_NAME_2": null, "VARNAME_2": null }, "geometry": { "type": "Point", "coordinates": [ -7.28745, 38.13343 ] } },
{ "type": "Feature", "properties": { "ID_0": 182, "ISO": "PRT", "NAME_0": "Portugal", "ID_1": 4, "NAME_1": "Beja", "ID_2": 63, "NAME_2": "Odemira", "HASC_2": "PT.BE.OD", "CCN_2": 0, "CCA_2": "0211", "TYPE_2": "Concelho", "ENGTYPE_2": "Municipality", "NL_NAME_2": null, "VARNAME_2": null }, "geometry": { "type": "Point", "coordinates": [ -8.57685, 37.60727 ] } },
{ "type": "Feature", "properties": { "ID_0": 182, "ISO": "PRT", "NAME_0": "Portugal", "ID_1": 4, "NAME_1": "Beja", "ID_2": 64, "NAME_2": "Ourique", "HASC_2": "PT.BE.OU", "CCN_2": 0, "CCA_2": "0212", "TYPE_2": "Concelho", "ENGTYPE_2": "Municipality", "NL_NAME_2": null, "VARNAME_2": null }, "geometry": { "type": "Point", "coordinates": [ -8.29112, 37.63994 ] } },
{ "type": "Feature", "properties": { "ID_0": 182, "ISO": "PRT", "NAME_0": "Portugal", "ID_1": 4, "NAME_1": "Beja", "ID_2": 65, "NAME_2": "Serpa", "HASC_2": "PT.BE.SE", "CCN_2": 0, "CCA_2": "0213", "TYPE_2": "Concelho", "ENGTYPE_2": "Municipality", "NL_NAME_2": null, "VARNAME_2": null }, "geometry": { "type": "Point", "coordinates": [ -7.48965, 37.93295 ] } },
{ "type": "Feature", "properties": { "ID_0": 182, "ISO": "PRT", "NAME_0": "Portugal", "ID_1": 4, "NAME_1": "Beja", "ID_2": 66, "NAME_2": "Vidigueira", "HASC_2": "PT.BE.VI", "CCN_2": 0, "CCA_2": "0214", "TYPE_2": "Concelho", "ENGTYPE_2": "Municipality", "NL_NAME_2": null, "VARNAME_2": null }, "geometry": { "type": "Point", "coordinates": [ -7.71696, 38.16895 ] } },
{ "type": "Feature", "properties": { "ID_0": 182, "ISO": "PRT", "NAME_0": "Portugal", "ID_1": 5, "NAME_1": "Braga", "ID_2": 67, "NAME_2": "Amares", "HASC_2": "PT.BR.AM", "CCN_2": 0, "CCA_2": "0301", "TYPE_2": "Concelho", "ENGTYPE_2": "Municipality", "NL_NAME_2": null, "VARNAME_2": null }, "geometry": { "type": "Point", "coordinates": [ -8.34528, 41.65169 ] } },
{ "type": "Feature", "properties": { "ID_0": 182, "ISO": "PRT", "NAME_0": "Portugal", "ID_1": 5, "NAME_1": "Braga", "ID_2": 68, "NAME_2": "Barcelos", "HASC_2": "PT.BR.BA", "CCN_2": 0, "CCA_2": "0302", "TYPE_2": "Concelho", "ENGTYPE_2": "Municipality", "NL_NAME_2": null, "VARNAME_2": null }, "geometry": { "type": "Point", "coordinates": [ -8.62371, 41.53671 ] } },
{ "type": "Feature", "properties": { "ID_0": 182, "ISO": "PRT", "NAME_0": "Portugal", "ID_1": 5, "NAME_1": "Braga", "ID_2": 69, "NAME_2": "Braga", "HASC_2": "PT.BR.BR", "CCN_2": 0, "CCA_2": "0303", "TYPE_2": "Concelho", "ENGTYPE_2": "Municipality", "NL_NAME_2": null, "VARNAME_2": null }, "geometry": { "type": "Point", "coordinates": [ -8.42384, 41.54424 ] } },
{ "type": "Feature", "properties": { "ID_0": 182, "ISO": "PRT", "NAME_0": "Portugal", "ID_1": 5, "NAME_1": "Braga", "ID_2": 69, "NAME_2": "Braga", "HASC_2": "PT.BR.BR", "CCN_2": 0, "CCA_2": "0308", "TYPE_2": "Concelho", "ENGTYPE_2": "Municipality", "NL_NAME_2": null, "VARNAME_2": null }, "geometry": { "type": "Point", "coordinates": [ -8.31598, 41.46308 ] } },
{ "type": "Feature", "properties": { "ID_0": 182, "ISO": "PRT", "NAME_0": "Portugal", "ID_1": 5, "NAME_1": "Braga", "ID_2": 70, "NAME_2": "Cabeceiras de Basto", "HASC_2": "PT.BR.CB", "CCN_2": 0, "CCA_2": "0304", "TYPE_2": "Concelho", "ENGTYPE_2": "Municipality", "NL_NAME_2": null, "VARNAME_2": null }, "geometry": { "type": "Point", "coordinates": [ -7.95389, 41.54017 ] } },
{ "type": "Feature", "properties": { "ID_0": 182, "ISO": "PRT", "NAME_0": "Portugal", "ID_1": 5, "NAME_1": "Braga", "ID_2": 71, "NAME_2": "Celorico de Basto", "HASC_2": "PT.BR.CL", "CCN_2": 0, "CCA_2": "0305", "TYPE_2": "Concelho", "ENGTYPE_2": "Municipality", "NL_NAME_2": null, "VARNAME_2": null }, "geometry": { "type": "Point", "coordinates": [ -8.03961, 41.40131 ] } },
{ "type": "Feature", "properties": { "ID_0": 182, "ISO": "PRT", "NAME_0": "Portugal", "ID_1": 5, "NAME_1": "Braga", "ID_2": 72, "NAME_2": "Esposende", "HASC_2": "PT.BR.ES", "CCN_2": 0, "CCA_2": "0306", "TYPE_2": "Concelho", "ENGTYPE_2": "Municipality", "NL_NAME_2": null, "VARNAME_2": null }, "geometry": { "type": "Point", "coordinates": [ -8.75723, 41.54715 ] } },
{ "type": "Feature", "properties": { "ID_0": 182, "ISO": "PRT", "NAME_0": "Portugal", "ID_1": 5, "NAME_1": "Braga", "ID_2": 73, "NAME_2": "Fafe", "HASC_2": "PT.BR.FA", "CCN_2": 0, "CCA_2": "0307", "TYPE_2": "Concelho", "ENGTYPE_2": "Municipality", "NL_NAME_2": null, "VARNAME_2": null }, "geometry": { "type": "Point", "coordinates": [ -8.14824, 41.47726 ] } },
{ "type": "Feature", "properties": { "ID_0": 182, "ISO": "PRT", "NAME_0": "Portugal", "ID_1": 5, "NAME_1": "Braga", "ID_2": 74, "NAME_2": "Póvoa de Lanhoso", "HASC_2": "PT.BR.PL", "CCN_2": 0, "CCA_2": "0309", "TYPE_2": "Concelho", "ENGTYPE_2": "Municipality", "NL_NAME_2": null, "VARNAME_2": null }, "geometry": { "type": "Point", "coordinates": [ -8.25359, 41.58811 ] } },
{ "type": "Feature", "properties": { "ID_0": 182, "ISO": "PRT", "NAME_0": "Portugal", "ID_1": 5, "NAME_1": "Braga", "ID_2": 75, "NAME_2": "Terras de Bouro", "HASC_2": "PT.BR.TB", "CCN_2": 0, "CCA_2": "0310", "TYPE_2": "Concelho", "ENGTYPE_2": "Municipality", "NL_NAME_2": null, "VARNAME_2": null }, "geometry": { "type": "Point", "coordinates": [ -8.19116, 41.73908 ] } },
{ "type": "Feature", "properties": { "ID_0": 182, "ISO": "PRT", "NAME_0": "Portugal", "ID_1": 5, "NAME_1": "Braga", "ID_2": 76, "NAME_2": "Vieira do Minho", "HASC_2": "PT.BR.VM", "CCN_2": 0, "CCA_2": "0311", "TYPE_2": "Concelho", "ENGTYPE_2": "Municipality", "NL_NAME_2": null, "VARNAME_2": null }, "geometry": { "type": "Point", "coordinates": [ -8.10469, 41.63118 ] } },
{ "type": "Feature", "properties": { "ID_0": 182, "ISO": "PRT", "NAME_0": "Portugal", "ID_1": 5, "NAME_1": "Braga", "ID_2": 77, "NAME_2": "Vila Nova de Famalicão", "HASC_2": "PT.BR.VF", "CCN_2": 0, "CCA_2": "0312", "TYPE_2": "Concelho", "ENGTYPE_2": "Municipality", "NL_NAME_2": null, "VARNAME_2": null }, "geometry": { "type": "Point", "coordinates": [ -8.50333, 41.40863 ] } },
{ "type": "Feature", "properties": { "ID_0": 182, "ISO": "PRT", "NAME_0": "Portugal", "ID_1": 5, "NAME_1": "Braga", "ID_2": 78, "NAME_2": "Vila Verde", "HASC_2": "PT.BR.VV", "CCN_2": 0, "CCA_2": "0313", "TYPE_2": "Concelho", "ENGTYPE_2": "Municipality", "NL_NAME_2": null, "VARNAME_2": null }, "geometry": { "type": "Point", "coordinates": [ -8.44346, 41.68076 ] } },
{ "type": "Feature", "properties": { "ID_0": 182, "ISO": "PRT", "NAME_0": "Portugal", "ID_1": 5, "NAME_1": "Braga", "ID_2": 79, "NAME_2": "Vizela", "HASC_2": "PT.BR.VZ", "CCN_2": 0, "CCA_2": "0314", "TYPE_2": "Concelho", "ENGTYPE_2": "Municipality", "NL_NAME_2": null, "VARNAME_2": null }, "geometry": { "type": "Point", "coordinates": [ -8.2956, 41.37332 ] } },
{ "type": "Feature", "properties": { "ID_0": 182, "ISO": "PRT", "NAME_0": "Portugal", "ID_1": 6, "NAME_1": "Bragança", "ID_2": 80, "NAME_2": "Alfândega da Fé", "HASC_2": "PT.BA.AF", "CCN_2": 0, "CCA_2": "0401", "TYPE_2": "Concelho", "ENGTYPE_2": "Municipality", "NL_NAME_2": null, "VARNAME_2": null }, "geometry": { "type": "Point", "coordinates": [ -6.95109, 41.34983 ] } },
{ "type": "Feature", "properties": { "ID_0": 182, "ISO": "PRT", "NAME_0": "Portugal", "ID_1": 6, "NAME_1": "Bragança", "ID_2": 81, "NAME_2": "Bragança", "HASC_2": "PT.BA.BR", "CCN_2": 0, "CCA_2": "0402", "TYPE_2": "Concelho", "ENGTYPE_2": "Municipality", "NL_NAME_2": null, "VARNAME_2": null }, "geometry": { "type": "Point", "coordinates": [ -6.73524, 41.77091 ] } },
{ "type": "Feature", "properties": { "ID_0": 182, "ISO": "PRT", "NAME_0": "Portugal", "ID_1": 6, "NAME_1": "Bragança", "ID_2": 82, "NAME_2": "Carrazeda de Ansiães", "HASC_2": "PT.BA.CA", "CCN_2": 0, "CCA_2": "0403", "TYPE_2": "Concelho", "ENGTYPE_2": "Municipality", "NL_NAME_2": null, "VARNAME_2": null }, "geometry": { "type": "Point", "coordinates": [ -7.30802, 41.22802 ] } },
{ "type": "Feature", "properties": { "ID_0": 182, "ISO": "PRT", "NAME_0": "Portugal", "ID_1": 6, "NAME_1": "Bragança", "ID_2": 83, "NAME_2": "Freixo de Espada à Cinta", "HASC_2": "PT.BA.FE", "CCN_2": 0, "CCA_2": "0404", "TYPE_2": "Concelho", "ENGTYPE_2": "Municipality", "NL_NAME_2": null, "VARNAME_2": null }, "geometry": { "type": "Point", "coordinates": [ -6.8327, 41.11352 ] } },
{ "type": "Feature", "properties": { "ID_0": 182, "ISO": "PRT", "NAME_0": "Portugal", "ID_1": 6, "NAME_1": "Bragança", "ID_2": 84, "NAME_2": "Macedo de Cavaleiros", "HASC_2": "PT.BA.MC", "CCN_2": 0, "CCA_2": "0405", "TYPE_2": "Concelho", "ENGTYPE_2": "Municipality", "NL_NAME_2": null, "VARNAME_2": null }, "geometry": { "type": "Point", "coordinates": [ -6.90628, 41.54336 ] } },
{ "type": "Feature", "properties": { "ID_0": 182, "ISO": "PRT", "NAME_0": "Portugal", "ID_1": 6, "NAME_1": "Bragança", "ID_2": 85, "NAME_2": "Miranda do Douro", "HASC_2": "PT.BA.MD", "CCN_2": 0, "CCA_2": "0406", "TYPE_2": "Concelho", "ENGTYPE_2": "Municipality", "NL_NAME_2": null, "VARNAME_2": null }, "geometry": { "type": "Point", "coordinates": [ -6.3585, 41.51059 ] } },
{ "type": "Feature", "properties": { "ID_0": 182, "ISO": "PRT", "NAME_0": "Portugal", "ID_1": 6, "NAME_1": "Bragança", "ID_2": 86, "NAME_2": "Mirandela", "HASC_2": "PT.BA.MI", "CCN_2": 0, "CCA_2": "0407", "TYPE_2": "Concelho", "ENGTYPE_2": "Municipality", "NL_NAME_2": null, "VARNAME_2": null }, "geometry": { "type": "Point", "coordinates": [ -7.18765, 41.50846 ] } },
{ "type": "Feature", "properties": { "ID_0": 182, "ISO": "PRT", "NAME_0": "Portugal", "ID_1": 6, "NAME_1": "Bragança", "ID_2": 87, "NAME_2": "Mogadouro", "HASC_2": "PT.BA.MO", "CCN_2": 0, "CCA_2": "0408", "TYPE_2": "Concelho", "ENGTYPE_2": "Municipality", "NL_NAME_2": null, "VARNAME_2": null }, "geometry": { "type": "Point", "coordinates": [ -6.67002, 41.33337 ] } },
{ "type": "Feature", "properties": { "ID_0": 182, "ISO": "PRT", "NAME_0": "Portugal", "ID_1": 6, "NAME_1": "Bragança", "ID_2": 88, "NAME_2": "Torre de Moncorvo", "HASC_2": "PT.BA.TM", "CCN_2": 0, "CCA_2": "0409", "TYPE_2": "Concelho", "ENGTYPE_2": "Municipality", "NL_NAME_2": null, "VARNAME_2": null }, "geometry": { "type": "Point", "coordinates": [ -7.01678, 41.17258 ] } },
{ "type": "Feature", "properties": { "ID_0": 182, "ISO": "PRT", "NAME_0": "Portugal", "ID_1": 6, "NAME_1": "Bragança", "ID_2": 89, "NAME_2": "Vila Flor", "HASC_2": "PT.BA.VF", "CCN_2": 0, "CCA_2": "0410", "TYPE_2": "Concelho", "ENGTYPE_2": "Municipality", "NL_NAME_2": null, "VARNAME_2": null }, "geometry": { "type": "Point", "coordinates": [ -7.15945, 41.32168 ] } },
{ "type": "Feature", "properties": { "ID_0": 182, "ISO": "PRT", "NAME_0": "Portugal", "ID_1": 6, "NAME_1": "Bragança", "ID_2": 90, "NAME_2": "Vimioso", "HASC_2": "PT.BA.VM", "CCN_2": 0, "CCA_2": "0411", "TYPE_2": "Concelho", "ENGTYPE_2": "Municipality", "NL_NAME_2": null, "VARNAME_2": null }, "geometry": { "type": "Point", "coordinates": [ -6.53074, 41.5707 ] } },
{ "type": "Feature", "properties": { "ID_0": 182, "ISO": "PRT", "NAME_0": "Portugal", "ID_1": 6, "NAME_1": "Bragança", "ID_2": 91, "NAME_2": "Vinhais", "HASC_2": "PT.BA.VN", "CCN_2": 0, "CCA_2": "0412", "TYPE_2": "Concelho", "ENGTYPE_2": "Municipality", "NL_NAME_2": null, "VARNAME_2": null }, "geometry": { "type": "Point", "coordinates": [ -7.04864, 41.83249 ] } },
{ "type": "Feature", "properties": { "ID_0": 182, "ISO": "PRT", "NAME_0": "Portugal", "ID_1": 7, "NAME_1": "Castelo Branco", "ID_2": 92, "NAME_2": "Belmonte", "HASC_2": "PT.CB.BE", "CCN_2": 0, "CCA_2": "0501", "TYPE_2": "Concelho", "ENGTYPE_2": "Municipality", "NL_NAME_2": null, "VARNAME_2": null }, "geometry": { "type": "Point", "coordinates": [ -7.32967, 40.33077 ] } },
{ "type": "Feature", "properties": { "ID_0": 182, "ISO": "PRT", "NAME_0": "Portugal", "ID_1": 7, "NAME_1": "Castelo Branco", "ID_2": 93, "NAME_2": "Castelo Branco", "HASC_2": "PT.CB.CB", "CCN_2": 0, "CCA_2": "0502", "TYPE_2": "Concelho", "ENGTYPE_2": "Municipality", "NL_NAME_2": null, "VARNAME_2": null }, "geometry": { "type": "Point", "coordinates": [ -7.50167, 39.85483 ] } },
{ "type": "Feature", "properties": { "ID_0": 182, "ISO": "PRT", "NAME_0": "Portugal", "ID_1": 7, "NAME_1": "Castelo Branco", "ID_2": 94, "NAME_2": "Covilhã", "HASC_2": "PT.CB.CO", "CCN_2": 0, "CCA_2": "0503", "TYPE_2": "Concelho", "ENGTYPE_2": "Municipality", "NL_NAME_2": null, "VARNAME_2": null }, "geometry": { "type": "Point", "coordinates": [ -7.56261, 40.25671 ] } },
{ "type": "Feature", "properties": { "ID_0": 182, "ISO": "PRT", "NAME_0": "Portugal", "ID_1": 7, "NAME_1": "Castelo Branco", "ID_2": 95, "NAME_2": "Fundão", "HASC_2": "PT.CB.FU", "CCN_2": 0, "CCA_2": "0504", "TYPE_2": "Concelho", "ENGTYPE_2": "Municipality", "NL_NAME_2": null, "VARNAME_2": null }, "geometry": { "type": "Point", "coordinates": [ -7.48247, 40.12144 ] } },
{ "type": "Feature", "properties": { "ID_0": 182, "ISO": "PRT", "NAME_0": "Portugal", "ID_1": 7, "NAME_1": "Castelo Branco", "ID_2": 96, "NAME_2": "Idanha-a-Nova", "HASC_2": "PT.CB.IN", "CCN_2": 0, "CCA_2": "0505", "TYPE_2": "Concelho", "ENGTYPE_2": "Municipality", "NL_NAME_2": null, "VARNAME_2": null }, "geometry": { "type": "Point", "coordinates": [ -7.11304, 39.90028 ] } },
{ "type": "Feature", "properties": { "ID_0": 182, "ISO": "PRT", "NAME_0": "Portugal", "ID_1": 7, "NAME_1": "Castelo Branco", "ID_2": 97, "NAME_2": "Oleiros", "HASC_2": "PT.CB.OL", "CCN_2": 0, "CCA_2": "0506", "TYPE_2": "Concelho", "ENGTYPE_2": "Municipality", "NL_NAME_2": null, "VARNAME_2": null }, "geometry": { "type": "Point", "coordinates": [ -7.87112, 39.94458 ] } },
{ "type": "Feature", "properties": { "ID_0": 182, "ISO": "PRT", "NAME_0": "Portugal", "ID_1": 7, "NAME_1": "Castelo Branco", "ID_2": 98, "NAME_2": "Penamacor", "HASC_2": "PT.CB.PE", "CCN_2": 0, "CCA_2": "0507", "TYPE_2": "Concelho", "ENGTYPE_2": "Municipality", "NL_NAME_2": null, "VARNAME_2": null }, "geometry": { "type": "Point", "coordinates": [ -7.13679, 40.17653 ] } },
{ "type": "Feature", "properties": { "ID_0": 182, "ISO": "PRT", "NAME_0": "Portugal", "ID_1": 7, "NAME_1": "Castelo Branco", "ID_2": 99, "NAME_2": "Proença-a-Nova", "HASC_2": "PT.CB.PN", "CCN_2": 0, "CCA_2": "0508", "TYPE_2": "Concelho", "ENGTYPE_2": "Municipality", "NL_NAME_2": null, "VARNAME_2": null }, "geometry": { "type": "Point", "coordinates": [ -7.85579, 39.7383 ] } },
{ "type": "Feature", "properties": { "ID_0": 182, "ISO": "PRT", "NAME_0": "Portugal", "ID_1": 7, "NAME_1": "Castelo Branco", "ID_2": 100, "NAME_2": "Sertã", "HASC_2": "PT.CB.SE", "CCN_2": 0, "CCA_2": "0509", "TYPE_2": "Concelho", "ENGTYPE_2": "Municipality", "NL_NAME_2": null, "VARNAME_2": null }, "geometry": { "type": "Point", "coordinates": [ -8.09918, 39.82443 ] } },
{ "type": "Feature", "properties": { "ID_0": 182, "ISO": "PRT", "NAME_0": "Portugal", "ID_1": 7, "NAME_1": "Castelo Branco", "ID_2": 101, "NAME_2": "Vila de Rei", "HASC_2": "PT.CB.VR", "CCN_2": 0, "CCA_2": "0510", "TYPE_2": "Concelho", "ENGTYPE_2": "Municipality", "NL_NAME_2": null, "VARNAME_2": null }, "geometry": { "type": "Point", "coordinates": [ -8.14432, 39.68312 ] } },
{ "type": "Feature", "properties": { "ID_0": 182, "ISO": "PRT", "NAME_0": "Portugal", "ID_1": 7, "NAME_1": "Castelo Branco", "ID_2": 102, "NAME_2": "Vila Velha de Ródão", "HASC_2": "PT.CB.VV", "CCN_2": 0, "CCA_2": "0511", "TYPE_2": "Concelho", "ENGTYPE_2": "Municipality", "NL_NAME_2": null, "VARNAME_2": null }, "geometry": { "type": "Point", "coordinates": [ -7.66377, 39.68093 ] } },
{ "type": "Feature", "properties": { "ID_0": 182, "ISO": "PRT", "NAME_0": "Portugal", "ID_1": 8, "NAME_1": "Coimbra", "ID_2": 103, "NAME_2": "Arganil", "HASC_2": "PT.CO.AR", "CCN_2": 0, "CCA_2": "0601", "TYPE_2": "Concelho", "ENGTYPE_2": "Municipality", "NL_NAME_2": null, "VARNAME_2": null }, "geometry": { "type": "Point", "coordinates": [ -7.98549, 40.22904 ] } },
{ "type": "Feature", "properties": { "ID_0": 182, "ISO": "PRT", "NAME_0": "Portugal", "ID_1": 8, "NAME_1": "Coimbra", "ID_2": 104, "NAME_2": "Cantanhede", "HASC_2": "PT.CO.CA", "CCN_2": 0, "CCA_2": "0602", "TYPE_2": "Concelho", "ENGTYPE_2": "Municipality", "NL_NAME_2": null, "VARNAME_2": null }, "geometry": { "type": "Point", "coordinates": [ -8.63734, 40.35496 ] } },
{ "type": "Feature", "properties": { "ID_0": 182, "ISO": "PRT", "NAME_0": "Portugal", "ID_1": 8, "NAME_1": "Coimbra", "ID_2": 105, "NAME_2": "Coimbra", "HASC_2": "PT.CO.CO", "CCN_2": 0, "CCA_2": "0603", "TYPE_2": "Concelho", "ENGTYPE_2": "Municipality", "NL_NAME_2": null, "VARNAME_2": null }, "geometry": { "type": "Point", "coordinates": [ -8.44617, 40.21615 ] } },
{ "type": "Feature", "properties": { "ID_0": 182, "ISO": "PRT", "NAME_0": "Portugal", "ID_1": 8, "NAME_1": "Coimbra", "ID_2": 106, "NAME_2": "Condeixa-a-Nova", "HASC_2": "PT.CO.CN", "CCN_2": 0, "CCA_2": "0604", "TYPE_2": "Concelho", "ENGTYPE_2": "Municipality", "NL_NAME_2": null, "VARNAME_2": null }, "geometry": { "type": "Point", "coordinates": [ -8.49963, 40.09871 ] } },
{ "type": "Feature", "properties": { "ID_0": 182, "ISO": "PRT", "NAME_0": "Portugal", "ID_1": 8, "NAME_1": "Coimbra", "ID_2": 107, "NAME_2": "Figueira da Foz", "HASC_2": "PT.CO.FF", "CCN_2": 0, "CCA_2": "0605", "TYPE_2": "Concelho", "ENGTYPE_2": "Municipality", "NL_NAME_2": null, "VARNAME_2": null }, "geometry": { "type": "Point", "coordinates": [ -8.80857, 40.16899 ] } },
{ "type": "Feature", "properties": { "ID_0": 182, "ISO": "PRT", "NAME_0": "Portugal", "ID_1": 8, "NAME_1": "Coimbra", "ID_2": 108, "NAME_2": "Góis", "HASC_2": "PT.CO.GO", "CCN_2": 0, "CCA_2": "0606", "TYPE_2": "Concelho", "ENGTYPE_2": "Municipality", "NL_NAME_2": null, "VARNAME_2": null }, "geometry": { "type": "Point", "coordinates": [ -8.08943, 40.10254 ] } },
{ "type": "Feature", "properties": { "ID_0": 182, "ISO": "PRT", "NAME_0": "Portugal", "ID_1": 8, "NAME_1": "Coimbra", "ID_2": 109, "NAME_2": "Lousã", "HASC_2": "PT.CO.LO", "CCN_2": 0, "CCA_2": "0607", "TYPE_2": "Concelho", "ENGTYPE_2": "Municipality", "NL_NAME_2": null, "VARNAME_2": null }, "geometry": { "type": "Point", "coordinates": [ -8.22838, 40.13177 ] } },
{ "type": "Feature", "properties": { "ID_0": 182, "ISO": "PRT", "NAME_0": "Portugal", "ID_1": 8, "NAME_1": "Coimbra", "ID_2": 110, "NAME_2": "Mira", "HASC_2": "PT.CO.MI", "CCN_2": 0, "CCA_2": "0608", "TYPE_2": "Concelho", "ENGTYPE_2": "Municipality", "NL_NAME_2": null, "VARNAME_2": null }, "geometry": { "type": "Point", "coordinates": [ -8.75472, 40.43307 ] } },
{ "type": "Feature", "properties": { "ID_0": 182, "ISO": "PRT", "NAME_0": "Portugal", "ID_1": 8, "NAME_1": "Coimbra", "ID_2": 111, "NAME_2": "Miranda do Corvo", "HASC_2": "PT.CO.MC", "CCN_2": 0, "CCA_2": "0609", "TYPE_2": "Concelho", "ENGTYPE_2": "Municipality", "NL_NAME_2": null, "VARNAME_2": null }, "geometry": { "type": "Point", "coordinates": [ -8.3274, 40.10486 ] } },
{ "type": "Feature", "properties": { "ID_0": 182, "ISO": "PRT", "NAME_0": "Portugal", "ID_1": 8, "NAME_1": "Coimbra", "ID_2": 112, "NAME_2": "Montemor-o-Velho", "HASC_2": "PT.CO.MV", "CCN_2": 0, "CCA_2": "0610", "TYPE_2": "Concelho", "ENGTYPE_2": "Municipality", "NL_NAME_2": null, "VARNAME_2": null }, "geometry": { "type": "Point", "coordinates": [ -8.65846, 40.21469 ] } },
{ "type": "Feature", "properties": { "ID_0": 182, "ISO": "PRT", "NAME_0": "Portugal", "ID_1": 8, "NAME_1": "Coimbra", "ID_2": 113, "NAME_2": "Oliveira do Hospital", "HASC_2": "PT.CO.OH", "CCN_2": 0, "CCA_2": "0611", "TYPE_2": "Concelho", "ENGTYPE_2": "Municipality", "NL_NAME_2": null, "VARNAME_2": null }, "geometry": { "type": "Point", "coordinates": [ -7.86372, 40.36846 ] } },
{ "type": "Feature", "properties": { "ID_0": 182, "ISO": "PRT", "NAME_0": "Portugal", "ID_1": 8, "NAME_1": "Coimbra", "ID_2": 114, "NAME_2": "Pampilhosa da Serra", "HASC_2": "PT.CO.PS", "CCN_2": 0, "CCA_2": "0612", "TYPE_2": "Concelho", "ENGTYPE_2": "Municipality", "NL_NAME_2": null, "VARNAME_2": null }, "geometry": { "type": "Point", "coordinates": [ -7.91637, 40.08431 ] } },
{ "type": "Feature", "properties": { "ID_0": 182, "ISO": "PRT", "NAME_0": "Portugal", "ID_1": 8, "NAME_1": "Coimbra", "ID_2": 115, "NAME_2": "Penacova", "HASC_2": "PT.CO.PC", "CCN_2": 0, "CCA_2": "0613", "TYPE_2": "Concelho", "ENGTYPE_2": "Municipality", "NL_NAME_2": null, "VARNAME_2": null }, "geometry": { "type": "Point", "coordinates": [ -8.26756, 40.29756 ] } },
{ "type": "Feature", "properties": { "ID_0": 182, "ISO": "PRT", "NAME_0": "Portugal", "ID_1": 8, "NAME_1": "Coimbra", "ID_2": 116, "NAME_2": "Penela", "HASC_2": "PT.CO.PL", "CCN_2": 0, "CCA_2": "0614", "TYPE_2": "Concelho", "ENGTYPE_2": "Municipality", "NL_NAME_2": null, "VARNAME_2": null }, "geometry": { "type": "Point", "coordinates": [ -8.36985, 40.01012 ] } },
{ "type": "Feature", "properties": { "ID_0": 182, "ISO": "PRT", "NAME_0": "Portugal", "ID_1": 8, "NAME_1": "Coimbra", "ID_2": 117, "NAME_2": "Soure", "HASC_2": "PT.CO.SO", "CCN_2": 0, "CCA_2": "0615", "TYPE_2": "Concelho", "ENGTYPE_2": "Municipality", "NL_NAME_2": null, "VARNAME_2": null }, "geometry": { "type": "Point", "coordinates": [ -8.61959, 40.06679 ] } },
{ "type": "Feature", "properties": { "ID_0": 182, "ISO": "PRT", "NAME_0": "Portugal", "ID_1": 8, "NAME_1": "Coimbra", "ID_2": 118, "NAME_2": "Tábua", "HASC_2": "PT.CO.TA", "CCN_2": 0, "CCA_2": "0616", "TYPE_2": "Concelho", "ENGTYPE_2": "Municipality", "NL_NAME_2": null, "VARNAME_2": null }, "geometry": { "type": "Point", "coordinates": [ -8.01519, 40.33416 ] } },
{ "type": "Feature", "properties": { "ID_0": 182, "ISO": "PRT", "NAME_0": "Portugal", "ID_1": 8, "NAME_1": "Coimbra", "ID_2": 119, "NAME_2": "Vila Nova de Poiares", "HASC_2": "PT.CO.VP", "CCN_2": 0, "CCA_2": "0617", "TYPE_2": "Concelho", "ENGTYPE_2": "Municipality", "NL_NAME_2": null, "VARNAME_2": null }, "geometry": { "type": "Point", "coordinates": [ -8.25039, 40.21693 ] } },
{ "type": "Feature", "properties": { "ID_0": 182, "ISO": "PRT", "NAME_0": "Portugal", "ID_1": 9, "NAME_1": "Faro", "ID_2": 120, "NAME_2": "Albufeira", "HASC_2": "PT.FA.AB", "CCN_2": 0, "CCA_2": "0801", "TYPE_2": "Concelho", "ENGTYPE_2": "Municipality", "NL_NAME_2": null, "VARNAME_2": null }, "geometry": { "type": "Point", "coordinates": [ -8.23264, 37.13378 ] } },
{ "type": "Feature", "properties": { "ID_0": 182, "ISO": "PRT", "NAME_0": "Portugal", "ID_1": 9, "NAME_1": "Faro", "ID_2": 121, "NAME_2": "Alcoutim", "HASC_2": "PT.FA.AC", "CCN_2": 0, "CCA_2": "0802", "TYPE_2": "Concelho", "ENGTYPE_2": "Municipality", "NL_NAME_2": null, "VARNAME_2": null }, "geometry": { "type": "Point", "coordinates": [ -7.64091, 37.44199 ] } },
{ "type": "Feature", "properties": { "ID_0": 182, "ISO": "PRT", "NAME_0": "Portugal", "ID_1": 9, "NAME_1": "Faro", "ID_2": 121, "NAME_2": "Alcoutim", "HASC_2": "PT.FA.AC", "CCN_2": 0, "CCA_2": "0814", "TYPE_2": "Concelho", "ENGTYPE_2": "Municipality", "NL_NAME_2": null, "VARNAME_2": null }, "geometry": { "type": "Point", "coordinates": [ -7.72372, 37.25066 ] } },
{ "type": "Feature", "properties": { "ID_0": 182, "ISO": "PRT", "NAME_0": "Portugal", "ID_1": 9, "NAME_1": "Faro", "ID_2": 122, "NAME_2": "Aljezur", "HASC_2": "PT.FA.AJ", "CCN_2": 0, "CCA_2": "0803", "TYPE_2": "Concelho", "ENGTYPE_2": "Municipality", "NL_NAME_2": null, "VARNAME_2": null }, "geometry": { "type": "Point", "coordinates": [ -8.80085, 37.29722 ] } },
{ "type": "Feature", "properties": { "ID_0": 182, "ISO": "PRT", "NAME_0": "Portugal", "ID_1": 9, "NAME_1": "Faro", "ID_2": 123, "NAME_2": "Castro Marim", "HASC_2": "PT.FA.CM", "CCN_2": 0, "CCA_2": "0804", "TYPE_2": "Concelho", "ENGTYPE_2": "Municipality", "NL_NAME_2": null, "VARNAME_2": null }, "geometry": { "type": "Point", "coordinates": [ -7.51688, 37.29272 ] } },
{ "type": "Feature", "properties": { "ID_0": 182, "ISO": "PRT", "NAME_0": "Portugal", "ID_1": 9, "NAME_1": "Faro", "ID_2": 124, "NAME_2": "Faro", "HASC_2": "PT.FA.FA", "CCN_2": 0, "CCA_2": "0805", "TYPE_2": "Concelho", "ENGTYPE_2": "Municipality", "NL_NAME_2": null, "VARNAME_2": null }, "geometry": { "type": "Point", "coordinates": [ -7.91958, 37.05997 ] } },
{ "type": "Feature", "properties": { "ID_0": 182, "ISO": "PRT", "NAME_0": "Portugal", "ID_1": 9, "NAME_1": "Faro", "ID_2": 125, "NAME_2": "Lagoa", "HASC_2": "PT.FA.LA", "CCN_2": 0, "CCA_2": "0806", "TYPE_2": "Concelho", "ENGTYPE_2": "Municipality", "NL_NAME_2": null, "VARNAME_2": null }, "geometry": { "type": "Point", "coordinates": [ -8.45328, 37.12575 ] } },
{ "type": "Feature", "properties": { "ID_0": 182, "ISO": "PRT", "NAME_0": "Portugal", "ID_1": 9, "NAME_1": "Faro", "ID_2": 126, "NAME_2": "Lagos", "HASC_2": "PT.FA.LS", "CCN_2": 0, "CCA_2": "0807", "TYPE_2": "Concelho", "ENGTYPE_2": "Municipality", "NL_NAME_2": null, "VARNAME_2": null }, "geometry": { "type": "Point", "coordinates": [ -8.72846, 37.152 ] } },
{ "type": "Feature", "properties": { "ID_0": 182, "ISO": "PRT", "NAME_0": "Portugal", "ID_1": 9, "NAME_1": "Faro", "ID_2": 127, "NAME_2": "Loulé", "HASC_2": "PT.FA.LO", "CCN_2": 0, "CCA_2": "0808", "TYPE_2": "Concelho", "ENGTYPE_2": "Municipality", "NL_NAME_2": null, "VARNAME_2": null }, "geometry": { "type": "Point", "coordinates": [ -8.04678, 37.22538 ] } },
{ "type": "Feature", "properties": { "ID_0": 182, "ISO": "PRT", "NAME_0": "Portugal", "ID_1": 9, "NAME_1": "Faro", "ID_2": 128, "NAME_2": "Monchique", "HASC_2": "PT.FA.MO", "CCN_2": 0, "CCA_2": "0809", "TYPE_2": "Concelho", "ENGTYPE_2": "Municipality", "NL_NAME_2": null, "VARNAME_2": null }, "geometry": { "type": "Point", "coordinates": [ -8.59169, 37.31618 ] } },
{ "type": "Feature", "properties": { "ID_0": 182, "ISO": "PRT", "NAME_0": "Portugal", "ID_1": 9, "NAME_1": "Faro", "ID_2": 129, "NAME_2": "Olhão", "HASC_2": "PT.FA.OL", "CCN_2": 0, "CCA_2": "0810", "TYPE_2": "Concelho", "ENGTYPE_2": "Municipality", "NL_NAME_2": null, "VARNAME_2": null }, "geometry": { "type": "Point", "coordinates": [ -7.81027, 37.06415 ] } },
{ "type": "Feature", "properties": { "ID_0": 182, "ISO": "PRT", "NAME_0": "Portugal", "ID_1": 9, "NAME_1": "Faro", "ID_2": 130, "NAME_2": "Portimão", "HASC_2": "PT.FA.PO", "CCN_2": 0, "CCA_2": "0811", "TYPE_2": "Concelho", "ENGTYPE_2": "Municipality", "NL_NAME_2": null, "VARNAME_2": null }, "geometry": { "type": "Point", "coordinates": [ -8.58283, 37.19219 ] } },
{ "type": "Feature", "properties": { "ID_0": 182, "ISO": "PRT", "NAME_0": "Portugal", "ID_1": 9, "NAME_1": "Faro", "ID_2": 131, "NAME_2": "São Brás de Alportel", "HASC_2": "PT.FA.SB", "CCN_2": 0, "CCA_2": "0812", "TYPE_2": "Concelho", "ENGTYPE_2": "Municipality", "NL_NAME_2": null, "VARNAME_2": null }, "geometry": { "type": "Point", "coordinates": [ -7.87865, 37.1957 ] } },
{ "type": "Feature", "properties": { "ID_0": 182, "ISO": "PRT", "NAME_0": "Portugal", "ID_1": 9, "NAME_1": "Faro", "ID_2": 132, "NAME_2": "Silves", "HASC_2": "PT.FA.SI", "CCN_2": 0, "CCA_2": "0813", "TYPE_2": "Concelho", "ENGTYPE_2": "Municipality", "NL_NAME_2": null, "VARNAME_2": null }, "geometry": { "type": "Point", "coordinates": [ -8.34586, 37.27033 ] } },
{ "type": "Feature", "properties": { "ID_0": 182, "ISO": "PRT", "NAME_0": "Portugal", "ID_1": 9, "NAME_1": "Faro", "ID_2": 133, "NAME_2": "Vila do Bispo", "HASC_2": "PT.FA.VB", "CCN_2": 0, "CCA_2": "0815", "TYPE_2": "Concelho", "ENGTYPE_2": "Municipality", "NL_NAME_2": null, "VARNAME_2": null }, "geometry": { "type": "Point", "coordinates": [ -8.88344, 37.08633 ] } },
{ "type": "Feature", "properties": { "ID_0": 182, "ISO": "PRT", "NAME_0": "Portugal", "ID_1": 9, "NAME_1": "Faro", "ID_2": 134, "NAME_2": "Vila Real de Santo António", "HASC_2": "PT.FA.VS", "CCN_2": 0, "CCA_2": "0816", "TYPE_2": "Concelho", "ENGTYPE_2": "Municipality", "NL_NAME_2": null, "VARNAME_2": null }, "geometry": { "type": "Point", "coordinates": [ -7.51971, 37.19617 ] } },
{ "type": "Feature", "properties": { "ID_0": 182, "ISO": "PRT", "NAME_0": "Portugal", "ID_1": 10, "NAME_1": "Guarda", "ID_2": 135, "NAME_2": "Aguiar da Beira", "HASC_2": "PT.GU.AB", "CCN_2": 0, "CCA_2": "0901", "TYPE_2": "Concelho", "ENGTYPE_2": "Municipality", "NL_NAME_2": null, "VARNAME_2": null }, "geometry": { "type": "Point", "coordinates": [ -7.52838, 40.78116 ] } },
{ "type": "Feature", "properties": { "ID_0": 182, "ISO": "PRT", "NAME_0": "Portugal", "ID_1": 10, "NAME_1": "Guarda", "ID_2": 136, "NAME_2": "Almeida", "HASC_2": "PT.GU.AL", "CCN_2": 0, "CCA_2": "0902", "TYPE_2": "Concelho", "ENGTYPE_2": "Municipality", "NL_NAME_2": null, "VARNAME_2": null }, "geometry": { "type": "Point", "coordinates": [ -6.91399, 40.62296 ] } },
{ "type": "Feature", "properties": { "ID_0": 182, "ISO": "PRT", "NAME_0": "Portugal", "ID_1": 10, "NAME_1": "Guarda", "ID_2": 137, "NAME_2": "Celorico da Beira", "HASC_2": "PT.GU.CB", "CCN_2": 0, "CCA_2": "0903", "TYPE_2": "Concelho", "ENGTYPE_2": "Municipality", "NL_NAME_2": null, "VARNAME_2": null }, "geometry": { "type": "Point", "coordinates": [ -7.38494, 40.6223 ] } },
{ "type": "Feature", "properties": { "ID_0": 182, "ISO": "PRT", "NAME_0": "Portugal", "ID_1": 10, "NAME_1": "Guarda", "ID_2": 138, "NAME_2": "Figueira de Castelo Rodrigo", "HASC_2": "PT.GU.FC", "CCN_2": 0, "CCA_2": "0904", "TYPE_2": "Concelho", "ENGTYPE_2": "Municipality", "NL_NAME_2": null, "VARNAME_2": null }, "geometry": { "type": "Point", "coordinates": [ -6.95941, 40.88446 ] } },
{ "type": "Feature", "properties": { "ID_0": 182, "ISO": "PRT", "NAME_0": "Portugal", "ID_1": 10, "NAME_1": "Guarda", "ID_2": 139, "NAME_2": "Fornos de Algodres", "HASC_2": "PT.GU.FA", "CCN_2": 0, "CCA_2": "0905", "TYPE_2": "Concelho", "ENGTYPE_2": "Municipality", "NL_NAME_2": null, "VARNAME_2": null }, "geometry": { "type": "Point", "coordinates": [ -7.50009, 40.65104 ] } },
{ "type": "Feature", "properties": { "ID_0": 182, "ISO": "PRT", "NAME_0": "Portugal", "ID_1": 10, "NAME_1": "Guarda", "ID_2": 140, "NAME_2": "Gouveia", "HASC_2": "PT.GU.GO", "CCN_2": 0, "CCA_2": "0906", "TYPE_2": "Concelho", "ENGTYPE_2": "Municipality", "NL_NAME_2": null, "VARNAME_2": null }, "geometry": { "type": "Point", "coordinates": [ -7.58032, 40.50137 ] } },
{ "type": "Feature", "properties": { "ID_0": 182, "ISO": "PRT", "NAME_0": "Portugal", "ID_1": 10, "NAME_1": "Guarda", "ID_2": 141, "NAME_2": "Guarda", "HASC_2": "PT.GU.GU", "CCN_2": 0, "CCA_2": "0907", "TYPE_2": "Concelho", "ENGTYPE_2": "Municipality", "NL_NAME_2": null, "VARNAME_2": null }, "geometry": { "type": "Point", "coordinates": [ -7.24505, 40.51951 ] } },
{ "type": "Feature", "properties": { "ID_0": 182, "ISO": "PRT", "NAME_0": "Portugal", "ID_1": 10, "NAME_1": "Guarda", "ID_2": 142, "NAME_2": "Mêda", "HASC_2": "PT.GU.ME", "CCN_2": 0, "CCA_2": "0909", "TYPE_2": "Concelho", "ENGTYPE_2": "Municipality", "NL_NAME_2": null, "VARNAME_2": null }, "geometry": { "type": "Point", "coordinates": [ -7.25281, 40.93664 ] } },
{ "type": "Feature", "properties": { "ID_0": 182, "ISO": "PRT", "NAME_0": "Portugal", "ID_1": 10, "NAME_1": "Guarda", "ID_2": 143, "NAME_2": "Manteigas", "HASC_2": "PT.GU.MA", "CCN_2": 0, "CCA_2": "0908", "TYPE_2": "Concelho", "ENGTYPE_2": "Municipality", "NL_NAME_2": null, "VARNAME_2": null }, "geometry": { "type": "Point", "coordinates": [ -7.52006, 40.39114 ] } },
{ "type": "Feature", "properties": { "ID_0": 182, "ISO": "PRT", "NAME_0": "Portugal", "ID_1": 10, "NAME_1": "Guarda", "ID_2": 144, "NAME_2": "Pinhel", "HASC_2": "PT.GU.PI", "CCN_2": 0, "CCA_2": "0910", "TYPE_2": "Concelho", "ENGTYPE_2": "Municipality", "NL_NAME_2": null, "VARNAME_2": null }, "geometry": { "type": "Point", "coordinates": [ -7.11013, 40.74195 ] } },
{ "type": "Feature", "properties": { "ID_0": 182, "ISO": "PRT", "NAME_0": "Portugal", "ID_1": 10, "NAME_1": "Guarda", "ID_2": 145, "NAME_2": "Sabugal", "HASC_2": "PT.GU.SA", "CCN_2": 0, "CCA_2": "0911", "TYPE_2": "Concelho", "ENGTYPE_2": "Municipality", "NL_NAME_2": null, "VARNAME_2": null }, "geometry": { "type": "Point", "coordinates": [ -7.03246, 40.37327 ] } },
{ "type": "Feature", "properties": { "ID_0": 182, "ISO": "PRT", "NAME_0": "Portugal", "ID_1": 10, "NAME_1": "Guarda", "ID_2": 146, "NAME_2": "Seia", "HASC_2": "PT.GU.SE", "CCN_2": 0, "CCA_2": "0912", "TYPE_2": "Concelho", "ENGTYPE_2": "Municipality", "NL_NAME_2": null, "VARNAME_2": null }, "geometry": { "type": "Point", "coordinates": [ -7.71916, 40.37776 ] } },
{ "type": "Feature", "properties": { "ID_0": 182, "ISO": "PRT", "NAME_0": "Portugal", "ID_1": 10, "NAME_1": "Guarda", "ID_2": 147, "NAME_2": "Trancoso", "HASC_2": "PT.GU.TR", "CCN_2": 0, "CCA_2": "0913", "TYPE_2": "Concelho", "ENGTYPE_2": "Municipality", "NL_NAME_2": null, "VARNAME_2": null }, "geometry": { "type": "Point", "coordinates": [ -7.33469, 40.79147 ] } },
{ "type": "Feature", "properties": { "ID_0": 182, "ISO": "PRT", "NAME_0": "Portugal", "ID_1": 10, "NAME_1": "Guarda", "ID_2": 148, "NAME_2": "Vila Nova de Foz Côa", "HASC_2": "PT.GU.VF", "CCN_2": 0, "CCA_2": "0914", "TYPE_2": "Concelho", "ENGTYPE_2": "Municipality", "NL_NAME_2": null, "VARNAME_2": null }, "geometry": { "type": "Point", "coordinates": [ -7.16992, 41.05264 ] } },
{ "type": "Feature", "properties": { "ID_0": 182, "ISO": "PRT", "NAME_0": "Portugal", "ID_1": 11, "NAME_1": "Leiria", "ID_2": 149, "NAME_2": "Óbidos", "HASC_2": "PT.LE.OB", "CCN_2": 0, "CCA_2": "1012", "TYPE_2": "Concelho", "ENGTYPE_2": "Municipality", "NL_NAME_2": null, "VARNAME_2": null }, "geometry": { "type": "Point", "coordinates": [ -9.18869, 39.3625 ] } },
{ "type": "Feature", "properties": { "ID_0": 182, "ISO": "PRT", "NAME_0": "Portugal", "ID_1": 11, "NAME_1": "Leiria", "ID_2": 150, "NAME_2": "Alcobaça", "HASC_2": "PT.LE.AC", "CCN_2": 0, "CCA_2": "1001", "TYPE_2": "Concelho", "ENGTYPE_2": "Municipality", "NL_NAME_2": null, "VARNAME_2": null }, "geometry": { "type": "Point", "coordinates": [ -8.99036, 39.55233 ] } },
{ "type": "Feature", "properties": { "ID_0": 182, "ISO": "PRT", "NAME_0": "Portugal", "ID_1": 11, "NAME_1": "Leiria", "ID_2": 151, "NAME_2": "Alvaiázere", "HASC_2": "PT.LE.AV", "CCN_2": 0, "CCA_2": "1002", "TYPE_2": "Concelho", "ENGTYPE_2": "Municipality", "NL_NAME_2": null, "VARNAME_2": null }, "geometry": { "type": "Point", "coordinates": [ -8.39541, 39.81925 ] } },
{ "type": "Feature", "properties": { "ID_0": 182, "ISO": "PRT", "NAME_0": "Portugal", "ID_1": 11, "NAME_1": "Leiria", "ID_2": 152, "NAME_2": "Ansião", "HASC_2": "PT.LE.AN", "CCN_2": 0, "CCA_2": "1003", "TYPE_2": "Concelho", "ENGTYPE_2": "Municipality", "NL_NAME_2": null, "VARNAME_2": null }, "geometry": { "type": "Point", "coordinates": [ -8.43871, 39.93416 ] } },
{ "type": "Feature", "properties": { "ID_0": 182, "ISO": "PRT", "NAME_0": "Portugal", "ID_1": 11, "NAME_1": "Leiria", "ID_2": 153, "NAME_2": "Batalha", "HASC_2": "PT.LE.BA", "CCN_2": 0, "CCA_2": "1004", "TYPE_2": "Concelho", "ENGTYPE_2": "Municipality", "NL_NAME_2": null, "VARNAME_2": null }, "geometry": { "type": "Point", "coordinates": [ -8.76554, 39.63706 ] } },
{ "type": "Feature", "properties": { "ID_0": 182, "ISO": "PRT", "NAME_0": "Portugal", "ID_1": 11, "NAME_1": "Leiria", "ID_2": 154, "NAME_2": "Bombarral", "HASC_2": "PT.LE.BO", "CCN_2": 0, "CCA_2": "1005", "TYPE_2": "Concelho", "ENGTYPE_2": "Municipality", "NL_NAME_2": null, "VARNAME_2": null }, "geometry": { "type": "Point", "coordinates": [ -9.15792, 39.28409 ] } },
{ "type": "Feature", "properties": { "ID_0": 182, "ISO": "PRT", "NAME_0": "Portugal", "ID_1": 11, "NAME_1": "Leiria", "ID_2": 155, "NAME_2": "Caldas da Rainha", "HASC_2": "PT.LE.CR", "CCN_2": 0, "CCA_2": "1006", "TYPE_2": "Concelho", "ENGTYPE_2": "Municipality", "NL_NAME_2": null, "VARNAME_2": null }, "geometry": { "type": "Point", "coordinates": [ -9.08624, 39.40748 ] } },
{ "type": "Feature", "properties": { "ID_0": 182, "ISO": "PRT", "NAME_0": "Portugal", "ID_1": 11, "NAME_1": "Leiria", "ID_2": 156, "NAME_2": "Castanheira de Pêra", "HASC_2": "PT.LE.CP", "CCN_2": 0, "CCA_2": "1007", "TYPE_2": "Concelho", "ENGTYPE_2": "Municipality", "NL_NAME_2": null, "VARNAME_2": null }, "geometry": { "type": "Point", "coordinates": [ -8.19581, 40.01995 ] } },
{ "type": "Feature", "properties": { "ID_0": 182, "ISO": "PRT", "NAME_0": "Portugal", "ID_1": 11, "NAME_1": "Leiria", "ID_2": 157, "NAME_2": "Figueiró dos Vinhos", "HASC_2": "PT.LE.FV", "CCN_2": 0, "CCA_2": "1008", "TYPE_2": "Concelho", "ENGTYPE_2": "Municipality", "NL_NAME_2": null, "VARNAME_2": null }, "geometry": { "type": "Point", "coordinates": [ -8.28207, 39.92521 ] } },
{ "type": "Feature", "properties": { "ID_0": 182, "ISO": "PRT", "NAME_0": "Portugal", "ID_1": 11, "NAME_1": "Leiria", "ID_2": 158, "NAME_2": "Leiria", "HASC_2": "PT.LE.LE", "CCN_2": 0, "CCA_2": "1009", "TYPE_2": "Concelho", "ENGTYPE_2": "Municipality", "NL_NAME_2": null, "VARNAME_2": null }, "geometry": { "type": "Point", "coordinates": [ -8.8022, 39.78931 ] } },
{ "type": "Feature", "properties": { "ID_0": 182, "ISO": "PRT", "NAME_0": "Portugal", "ID_1": 11, "NAME_1": "Leiria", "ID_2": 159, "NAME_2": "Marinha Grande", "HASC_2": "PT.LE.MG", "CCN_2": 0, "CCA_2": "1010", "TYPE_2": "Concelho", "ENGTYPE_2": "Municipality", "NL_NAME_2": null, "VARNAME_2": null }, "geometry": { "type": "Point", "coordinates": [ -8.95258, 39.78528 ] } },
{ "type": "Feature", "properties": { "ID_0": 182, "ISO": "PRT", "NAME_0": "Portugal", "ID_1": 11, "NAME_1": "Leiria", "ID_2": 160, "NAME_2": "Nazaré", "HASC_2": "PT.LE.NA", "CCN_2": 0, "CCA_2": "1011", "TYPE_2": "Concelho", "ENGTYPE_2": "Municipality", "NL_NAME_2": null, "VARNAME_2": null }, "geometry": { "type": "Point", "coordinates": [ -9.0444, 39.59469 ] } },
{ "type": "Feature", "properties": { "ID_0": 182, "ISO": "PRT", "NAME_0": "Portugal", "ID_1": 11, "NAME_1": "Leiria", "ID_2": 161, "NAME_2": "Pedrógão Grande", "HASC_2": "PT.LE.PG", "CCN_2": 0, "CCA_2": "1013", "TYPE_2": "Concelho", "ENGTYPE_2": "Municipality", "NL_NAME_2": null, "VARNAME_2": null }, "geometry": { "type": "Point", "coordinates": [ -8.18258, 39.93493 ] } },
{ "type": "Feature", "properties": { "ID_0": 182, "ISO": "PRT", "NAME_0": "Portugal", "ID_1": 11, "NAME_1": "Leiria", "ID_2": 162, "NAME_2": "Peniche", "HASC_2": "PT.LE.PN", "CCN_2": 0, "CCA_2": "1014", "TYPE_2": "Concelho", "ENGTYPE_2": "Municipality", "NL_NAME_2": null, "VARNAME_2": null }, "geometry": { "type": "Point", "coordinates": [ -9.32086, 39.33924 ] } },
{ "type": "Feature", "properties": { "ID_0": 182, "ISO": "PRT", "NAME_0": "Portugal", "ID_1": 11, "NAME_1": "Leiria", "ID_2": 163, "NAME_2": "Pombal", "HASC_2": "PT.LE.PB", "CCN_2": 0, "CCA_2": "1015", "TYPE_2": "Concelho", "ENGTYPE_2": "Municipality", "NL_NAME_2": null, "VARNAME_2": null }, "geometry": { "type": "Point", "coordinates": [ -8.67737, 39.92648 ] } },
{ "type": "Feature", "properties": { "ID_0": 182, "ISO": "PRT", "NAME_0": "Portugal", "ID_1": 11, "NAME_1": "Leiria", "ID_2": 164, "NAME_2": "Porto de Mós", "HASC_2": "PT.LE.PM", "CCN_2": 0, "CCA_2": "1016", "TYPE_2": "Concelho", "ENGTYPE_2": "Municipality", "NL_NAME_2": null, "VARNAME_2": null }, "geometry": { "type": "Point", "coordinates": [ -8.81701, 39.55792 ] } },
{ "type": "Feature", "properties": { "ID_0": 182, "ISO": "PRT", "NAME_0": "Portugal", "ID_1": 12, "NAME_1": "Lisboa", "ID_2": 165, "NAME_2": "Alenquer", "HASC_2": "PT.LI.AL", "CCN_2": 0, "CCA_2": "1101", "TYPE_2": "Concelho", "ENGTYPE_2": "Municipality", "NL_NAME_2": null, "VARNAME_2": null }, "geometry": { "type": "Point", "coordinates": [ -9.03907, 39.09816 ] } },
{ "type": "Feature", "properties": { "ID_0": 182, "ISO": "PRT", "NAME_0": "Portugal", "ID_1": 12, "NAME_1": "Lisboa", "ID_2": 166, "NAME_2": "Amadora", "HASC_2": "PT.LI.AM", "CCN_2": 0, "CCA_2": "1115", "TYPE_2": "Concelho", "ENGTYPE_2": "Municipality", "NL_NAME_2": null, "VARNAME_2": null }, "geometry": { "type": "Point", "coordinates": [ -9.22951, 38.75982 ] } },
{ "type": "Feature", "properties": { "ID_0": 182, "ISO": "PRT", "NAME_0": "Portugal", "ID_1": 12, "NAME_1": "Lisboa", "ID_2": 167, "NAME_2": "Arruda dos Vinhos", "HASC_2": "PT.LI.AV", "CCN_2": 0, "CCA_2": "1102", "TYPE_2": "Concelho", "ENGTYPE_2": "Municipality", "NL_NAME_2": null, "VARNAME_2": null }, "geometry": { "type": "Point", "coordinates": [ -9.0942, 38.97467 ] } },
{ "type": "Feature", "properties": { "ID_0": 182, "ISO": "PRT", "NAME_0": "Portugal", "ID_1": 12, "NAME_1": "Lisboa", "ID_2": 168, "NAME_2": "Azambuja", "HASC_2": "PT.LI.AZ", "CCN_2": 0, "CCA_2": "1103", "TYPE_2": "Concelho", "ENGTYPE_2": "Municipality", "NL_NAME_2": null, "VARNAME_2": null }, "geometry": { "type": "Point", "coordinates": [ -8.89687, 39.13367 ] } },
{ "type": "Feature", "properties": { "ID_0": 182, "ISO": "PRT", "NAME_0": "Portugal", "ID_1": 12, "NAME_1": "Lisboa", "ID_2": 169, "NAME_2": "Cadaval", "HASC_2": "PT.LI.CD", "CCN_2": 0, "CCA_2": "1104", "TYPE_2": "Concelho", "ENGTYPE_2": "Municipality", "NL_NAME_2": null, "VARNAME_2": null }, "geometry": { "type": "Point", "coordinates": [ -9.06755, 39.23491 ] } },
{ "type": "Feature", "properties": { "ID_0": 182, "ISO": "PRT", "NAME_0": "Portugal", "ID_1": 12, "NAME_1": "Lisboa", "ID_2": 170, "NAME_2": "Cascais", "HASC_2": "PT.LI.CS", "CCN_2": 0, "CCA_2": "1105", "TYPE_2": "Concelho", "ENGTYPE_2": "Municipality", "NL_NAME_2": null, "VARNAME_2": null }, "geometry": { "type": "Point", "coordinates": [ -9.401, 38.72498 ] } },
{ "type": "Feature", "properties": { "ID_0": 182, "ISO": "PRT", "NAME_0": "Portugal", "ID_1": 12, "NAME_1": "Lisboa", "ID_2": 171, "NAME_2": "Lisboa", "HASC_2": "PT.LI.LI", "CCN_2": 0, "CCA_2": "1106", "TYPE_2": "Concelho", "ENGTYPE_2": "Municipality", "NL_NAME_2": null, "VARNAME_2": null }, "geometry": { "type": "Point", "coordinates": [ -9.15768, 38.74165 ] } },
{ "type": "Feature", "properties": { "ID_0": 182, "ISO": "PRT", "NAME_0": "Portugal", "ID_1": 12, "NAME_1": "Lisboa", "ID_2": 172, "NAME_2": "Loures", "HASC_2": "PT.LI.LS", "CCN_2": 0, "CCA_2": "1107", "TYPE_2": "Concelho", "ENGTYPE_2": "Municipality", "NL_NAME_2": null, "VARNAME_2": null }, "geometry": { "type": "Point", "coordinates": [ -9.15447, 38.86163 ] } },
{ "type": "Feature", "properties": { "ID_0": 182, "ISO": "PRT", "NAME_0": "Portugal", "ID_1": 12, "NAME_1": "Lisboa", "ID_2": 173, "NAME_2": "Lourinhã", "HASC_2": "PT.LI.LN", "CCN_2": 0, "CCA_2": "1108", "TYPE_2": "Concelho", "ENGTYPE_2": "Municipality", "NL_NAME_2": null, "VARNAME_2": null }, "geometry": { "type": "Point", "coordinates": [ -9.26925, 39.24654 ] } },
{ "type": "Feature", "properties": { "ID_0": 182, "ISO": "PRT", "NAME_0": "Portugal", "ID_1": 12, "NAME_1": "Lisboa", "ID_2": 174, "NAME_2": "Mafra", "HASC_2": "PT.LI.MA", "CCN_2": 0, "CCA_2": "1109", "TYPE_2": "Concelho", "ENGTYPE_2": "Municipality", "NL_NAME_2": null, "VARNAME_2": null }, "geometry": { "type": "Point", "coordinates": [ -9.30887, 38.96114 ] } },
{ "type": "Feature", "properties": { "ID_0": 182, "ISO": "PRT", "NAME_0": "Portugal", "ID_1": 12, "NAME_1": "Lisboa", "ID_2": 175, "NAME_2": "Odivelas", "HASC_2": "PT.LI.OD", "CCN_2": 0, "CCA_2": "1116", "TYPE_2": "Concelho", "ENGTYPE_2": "Municipality", "NL_NAME_2": null, "VARNAME_2": null }, "geometry": { "type": "Point", "coordinates": [ -9.19927, 38.79782 ] } },
{ "type": "Feature", "properties": { "ID_0": 182, "ISO": "PRT", "NAME_0": "Portugal", "ID_1": 12, "NAME_1": "Lisboa", "ID_2": 176, "NAME_2": "Oeiras", "HASC_2": "PT.LI.OE", "CCN_2": 0, "CCA_2": "1110", "TYPE_2": "Concelho", "ENGTYPE_2": "Municipality", "NL_NAME_2": null, "VARNAME_2": null }, "geometry": { "type": "Point", "coordinates": [ -9.27631, 38.71702 ] } },
{ "type": "Feature", "properties": { "ID_0": 182, "ISO": "PRT", "NAME_0": "Portugal", "ID_1": 12, "NAME_1": "Lisboa", "ID_2": 177, "NAME_2": "Sintra", "HASC_2": "PT.LI.SI", "CCN_2": 0, "CCA_2": "1111", "TYPE_2": "Concelho", "ENGTYPE_2": "Municipality", "NL_NAME_2": null, "VARNAME_2": null }, "geometry": { "type": "Point", "coordinates": [ -9.35764, 38.82304 ] } },
{ "type": "Feature", "properties": { "ID_0": 182, "ISO": "PRT", "NAME_0": "Portugal", "ID_1": 12, "NAME_1": "Lisboa", "ID_2": 178, "NAME_2": "Sobral de Monte Agraço", "HASC_2": "PT.LI.SM", "CCN_2": 0, "CCA_2": "1112", "TYPE_2": "Concelho", "ENGTYPE_2": "Municipality", "NL_NAME_2": null, "VARNAME_2": null }, "geometry": { "type": "Point", "coordinates": [ -9.16073, 38.99514 ] } },
{ "type": "Feature", "properties": { "ID_0": 182, "ISO": "PRT", "NAME_0": "Portugal", "ID_1": 12, "NAME_1": "Lisboa", "ID_2": 179, "NAME_2": "Torres Vedras", "HASC_2": "PT.LI.TV", "CCN_2": 0, "CCA_2": "1113", "TYPE_2": "Concelho", "ENGTYPE_2": "Municipality", "NL_NAME_2": null, "VARNAME_2": null }, "geometry": { "type": "Point", "coordinates": [ -9.26044, 39.10489 ] } },
{ "type": "Feature", "properties": { "ID_0": 182, "ISO": "PRT", "NAME_0": "Portugal", "ID_1": 12, "NAME_1": "Lisboa", "ID_2": 180, "NAME_2": "Vila Franca de Xira", "HASC_2": "PT.LI.VX", "CCN_2": 0, "CCA_2": "1114", "TYPE_2": "Concelho", "ENGTYPE_2": "Municipality", "NL_NAME_2": null, "VARNAME_2": null }, "geometry": { "type": "Point", "coordinates": [ -8.98363, 38.92957 ] } },
{ "type": "Feature", "properties": { "ID_0": 182, "ISO": "PRT", "NAME_0": "Portugal", "ID_1": 13, "NAME_1": "Madeira", "ID_2": 181, "NAME_2": "Câmara de Lobos", "HASC_2": "PT.MA.CL", "CCN_2": 0, "CCA_2": "3102", "TYPE_2": "Concelho", "ENGTYPE_2": "Municipality", "NL_NAME_2": null, "VARNAME_2": null }, "geometry": { "type": "Point", "coordinates": [ -16.97685, 32.70212 ] } },
{ "type": "Feature", "properties": { "ID_0": 182, "ISO": "PRT", "NAME_0": "Portugal", "ID_1": 13, "NAME_1": "Madeira", "ID_2": 182, "NAME_2": "Calheta", "HASC_2": "PT.MA.CT", "CCN_2": 0, "CCA_2": "3101", "TYPE_2": "Concelho", "ENGTYPE_2": "Municipality", "NL_NAME_2": null, "VARNAME_2": null }, "geometry": { "type": "Point", "coordinates": [ -17.18243, 32.77011 ] } },
{ "type": "Feature", "properties": { "ID_0": 182, "ISO": "PRT", "NAME_0": "Portugal", "ID_1": 13, "NAME_1": "Madeira", "ID_2": 183, "NAME_2": "Funchal", "HASC_2": "PT.MA.FU", "CCN_2": 0, "CCA_2": "3103", "TYPE_2": "Concelho", "ENGTYPE_2": "Municipality", "NL_NAME_2": null, "VARNAME_2": null }, "geometry": { "type": "Point", "coordinates": [ -16.91066, 32.65495 ] } },
{ "type": "Feature", "properties": { "ID_0": 182, "ISO": "PRT", "NAME_0": "Portugal", "ID_1": 13, "NAME_1": "Madeira", "ID_2": 184, "NAME_2": "Machico", "HASC_2": "PT.MA.MA", "CCN_2": 0, "CCA_2": "3104", "TYPE_2": "Concelho", "ENGTYPE_2": "Municipality", "NL_NAME_2": null, "VARNAME_2": null }, "geometry": { "type": "Point", "coordinates": [ -16.80249, 32.74064 ] } },
{ "type": "Feature", "properties": { "ID_0": 182, "ISO": "PRT", "NAME_0": "Portugal", "ID_1": 13, "NAME_1": "Madeira", "ID_2": 185, "NAME_2": "Ponta do Sol", "HASC_2": "PT.MA.PD", "CCN_2": 0, "CCA_2": "3105", "TYPE_2": "Concelho", "ENGTYPE_2": "Municipality", "NL_NAME_2": null, "VARNAME_2": null }, "geometry": { "type": "Point", "coordinates": [ -17.09404, 32.72263 ] } },
{ "type": "Feature", "properties": { "ID_0": 182, "ISO": "PRT", "NAME_0": "Portugal", "ID_1": 13, "NAME_1": "Madeira", "ID_2": 186, "NAME_2": "Porto Moniz", "HASC_2": "PT.MA.PM", "CCN_2": 0, "CCA_2": "3106", "TYPE_2": "Concelho", "ENGTYPE_2": "Municipality", "NL_NAME_2": null, "VARNAME_2": null }, "geometry": { "type": "Point", "coordinates": [ -17.14683, 32.81686 ] } },
{ "type": "Feature", "properties": { "ID_0": 182, "ISO": "PRT", "NAME_0": "Portugal", "ID_1": 13, "NAME_1": "Madeira", "ID_2": 187, "NAME_2": "Porto Santo", "HASC_2": "PT.MA.PS", "CCN_2": 0, "CCA_2": "3201", "TYPE_2": "Concelho", "ENGTYPE_2": "Municipality", "NL_NAME_2": null, "VARNAME_2": null }, "geometry": { "type": "Point", "coordinates": [ -16.3434, 33.06704 ] } },
{ "type": "Feature", "properties": { "ID_0": 182, "ISO": "PRT", "NAME_0": "Portugal", "ID_1": 13, "NAME_1": "Madeira", "ID_2": 188, "NAME_2": "Ribeira Brava", "HASC_2": "PT.MA.RB", "CCN_2": 0, "CCA_2": "3107", "TYPE_2": "Concelho", "ENGTYPE_2": "Municipality", "NL_NAME_2": null, "VARNAME_2": null }, "geometry": { "type": "Point", "coordinates": [ -17.03261, 32.70882 ] } },
{ "type": "Feature", "properties": { "ID_0": 182, "ISO": "PRT", "NAME_0": "Portugal", "ID_1": 13, "NAME_1": "Madeira", "ID_2": 189, "NAME_2": "São Vicente", "HASC_2": "PT.MA.SV", "CCN_2": 0, "CCA_2": "3110", "TYPE_2": "Concelho", "ENGTYPE_2": "Municipality", "NL_NAME_2": null, "VARNAME_2": null }, "geometry": { "type": "Point", "coordinates": [ -17.01108, 32.78689 ] } },
{ "type": "Feature", "properties": { "ID_0": 182, "ISO": "PRT", "NAME_0": "Portugal", "ID_1": 13, "NAME_1": "Madeira", "ID_2": 190, "NAME_2": "Santa Cruz", "HASC_2": "PT.MA.SC", "CCN_2": 0, "CCA_2": "3108", "TYPE_2": "Concelho", "ENGTYPE_2": "Municipality", "NL_NAME_2": null, "VARNAME_2": null }, "geometry": { "type": "Point", "coordinates": [ -16.77967, 32.65848 ] } },
{ "type": "Feature", "properties": { "ID_0": 182, "ISO": "PRT", "NAME_0": "Portugal", "ID_1": 13, "NAME_1": "Madeira", "ID_2": 191, "NAME_2": "Santana", "HASC_2": "PT.MA.SA", "CCN_2": 0, "CCA_2": "3109", "TYPE_2": "Concelho", "ENGTYPE_2": "Municipality", "NL_NAME_2": null, "VARNAME_2": null }, "geometry": { "type": "Point", "coordinates": [ -16.90529, 32.78111 ] } },
{ "type": "Feature", "properties": { "ID_0": 182, "ISO": "PRT", "NAME_0": "Portugal", "ID_1": 14, "NAME_1": "Portalegre", "ID_2": 192, "NAME_2": "Alter do Chão", "HASC_2": "PT.PA.AC", "CCN_2": 0, "CCA_2": "1201", "TYPE_2": "Concelho", "ENGTYPE_2": "Municipality", "NL_NAME_2": null, "VARNAME_2": null }, "geometry": { "type": "Point", "coordinates": [ -7.72489, 39.21298 ] } },
{ "type": "Feature", "properties": { "ID_0": 182, "ISO": "PRT", "NAME_0": "Portugal", "ID_1": 14, "NAME_1": "Portalegre", "ID_2": 193, "NAME_2": "Arronches", "HASC_2": "PT.PA.AR", "CCN_2": 0, "CCA_2": "1202", "TYPE_2": "Concelho", "ENGTYPE_2": "Municipality", "NL_NAME_2": null, "VARNAME_2": null }, "geometry": { "type": "Point", "coordinates": [ -7.24333, 39.11683 ] } },
{ "type": "Feature", "properties": { "ID_0": 182, "ISO": "PRT", "NAME_0": "Portugal", "ID_1": 14, "NAME_1": "Portalegre", "ID_2": 194, "NAME_2": "Avis", "HASC_2": "PT.PA.AV", "CCN_2": 0, "CCA_2": "1203", "TYPE_2": "Concelho", "ENGTYPE_2": "Municipality", "NL_NAME_2": null, "VARNAME_2": null }, "geometry": { "type": "Point", "coordinates": [ -7.91286, 39.06969 ] } },
{ "type": "Feature", "properties": { "ID_0": 182, "ISO": "PRT", "NAME_0": "Portugal", "ID_1": 14, "NAME_1": "Portalegre", "ID_2": 195, "NAME_2": "Campo Maior", "HASC_2": "PT.PA.CM", "CCN_2": 0, "CCA_2": "1204", "TYPE_2": "Concelho", "ENGTYPE_2": "Municipality", "NL_NAME_2": null, "VARNAME_2": null }, "geometry": { "type": "Point", "coordinates": [ -7.05048, 39.02619 ] } },
{ "type": "Feature", "properties": { "ID_0": 182, "ISO": "PRT", "NAME_0": "Portugal", "ID_1": 14, "NAME_1": "Portalegre", "ID_2": 196, "NAME_2": "Castelo de Vide", "HASC_2": "PT.PA.CV", "CCN_2": 0, "CCA_2": "1205", "TYPE_2": "Concelho", "ENGTYPE_2": "Municipality", "NL_NAME_2": null, "VARNAME_2": null }, "geometry": { "type": "Point", "coordinates": [ -7.49332, 39.46455 ] } },
{ "type": "Feature", "properties": { "ID_0": 182, "ISO": "PRT", "NAME_0": "Portugal", "ID_1": 14, "NAME_1": "Portalegre", "ID_2": 197, "NAME_2": "Crato", "HASC_2": "PT.PA.CR", "CCN_2": 0, "CCA_2": "1206", "TYPE_2": "Concelho", "ENGTYPE_2": "Municipality", "NL_NAME_2": null, "VARNAME_2": null }, "geometry": { "type": "Point", "coordinates": [ -7.64504, 39.31332 ] } },
{ "type": "Feature", "properties": { "ID_0": 182, "ISO": "PRT", "NAME_0": "Portugal", "ID_1": 14, "NAME_1": "Portalegre", "ID_2": 198, "NAME_2": "Elvas", "HASC_2": "PT.PA.EL", "CCN_2": 0, "CCA_2": "1207", "TYPE_2": "Concelho", "ENGTYPE_2": "Municipality", "NL_NAME_2": null, "VARNAME_2": null }, "geometry": { "type": "Point", "coordinates": [ -7.22888, 38.91048 ] } },
{ "type": "Feature", "properties": { "ID_0": 182, "ISO": "PRT", "NAME_0": "Portugal", "ID_1": 14, "NAME_1": "Portalegre", "ID_2": 199, "NAME_2": "Fronteira", "HASC_2": "PT.PA.FR", "CCN_2": 0, "CCA_2": "1208", "TYPE_2": "Concelho", "ENGTYPE_2": "Municipality", "NL_NAME_2": null, "VARNAME_2": null }, "geometry": { "type": "Point", "coordinates": [ -7.62666, 39.07602 ] } },
{ "type": "Feature", "properties": { "ID_0": 182, "ISO": "PRT", "NAME_0": "Portugal", "ID_1": 14, "NAME_1": "Portalegre", "ID_2": 200, "NAME_2": "Gavião", "HASC_2": "PT.PA.GA", "CCN_2": 0, "CCA_2": "1209", "TYPE_2": "Concelho", "ENGTYPE_2": "Municipality", "NL_NAME_2": null, "VARNAME_2": null }, "geometry": { "type": "Point", "coordinates": [ -7.89503, 39.43883 ] } },
{ "type": "Feature", "properties": { "ID_0": 182, "ISO": "PRT", "NAME_0": "Portugal", "ID_1": 14, "NAME_1": "Portalegre", "ID_2": 201, "NAME_2": "Marvão", "HASC_2": "PT.PA.MA", "CCN_2": 0, "CCA_2": "1210", "TYPE_2": "Concelho", "ENGTYPE_2": "Municipality", "NL_NAME_2": null, "VARNAME_2": null }, "geometry": { "type": "Point", "coordinates": [ -7.3628, 39.40531 ] } },
{ "type": "Feature", "properties": { "ID_0": 182, "ISO": "PRT", "NAME_0": "Portugal", "ID_1": 14, "NAME_1": "Portalegre", "ID_2": 202, "NAME_2": "Monforte", "HASC_2": "PT.PA.MO", "CCN_2": 0, "CCA_2": "1211", "TYPE_2": "Concelho", "ENGTYPE_2": "Municipality", "NL_NAME_2": null, "VARNAME_2": null }, "geometry": { "type": "Point", "coordinates": [ -7.4354, 39.0479 ] } },
{ "type": "Feature", "properties": { "ID_0": 182, "ISO": "PRT", "NAME_0": "Portugal", "ID_1": 14, "NAME_1": "Portalegre", "ID_2": 203, "NAME_2": "Nisa", "HASC_2": "PT.PA.NI", "CCN_2": 0, "CCA_2": "1212", "TYPE_2": "Concelho", "ENGTYPE_2": "Municipality", "NL_NAME_2": null, "VARNAME_2": null }, "geometry": { "type": "Point", "coordinates": [ -7.66759, 39.52286 ] } },
{ "type": "Feature", "properties": { "ID_0": 182, "ISO": "PRT", "NAME_0": "Portugal", "ID_1": 14, "NAME_1": "Portalegre", "ID_2": 204, "NAME_2": "Ponte de Sôr", "HASC_2": "PT.PA.PS", "CCN_2": 0, "CCA_2": "1213", "TYPE_2": "Concelho", "ENGTYPE_2": "Municipality", "NL_NAME_2": null, "VARNAME_2": null }, "geometry": { "type": "Point", "coordinates": [ -8.08241, 39.18793 ] } },
{ "type": "Feature", "properties": { "ID_0": 182, "ISO": "PRT", "NAME_0": "Portugal", "ID_1": 14, "NAME_1": "Portalegre", "ID_2": 205, "NAME_2": "Portalegre", "HASC_2": "PT.PA.PA", "CCN_2": 0, "CCA_2": "1214", "TYPE_2": "Concelho", "ENGTYPE_2": "Municipality", "NL_NAME_2": null, "VARNAME_2": null }, "geometry": { "type": "Point", "coordinates": [ -7.39958, 39.26928 ] } },
{ "type": "Feature", "properties": { "ID_0": 182, "ISO": "PRT", "NAME_0": "Portugal", "ID_1": 14, "NAME_1": "Portalegre", "ID_2": 206, "NAME_2": "Sousel", "HASC_2": "PT.PA.SO", "CCN_2": 0, "CCA_2": "1215", "TYPE_2": "Concelho", "ENGTYPE_2": "Municipality", "NL_NAME_2": null, "VARNAME_2": null }, "geometry": { "type": "Point", "coordinates": [ -7.73946, 38.96152 ] } },
{ "type": "Feature", "properties": { "ID_0": 182, "ISO": "PRT", "NAME_0": "Portugal", "ID_1": 15, "NAME_1": "Porto", "ID_2": 207, "NAME_2": "Amarante", "HASC_2": "PT.PO.AM", "CCN_2": 0, "CCA_2": "1301", "TYPE_2": "Concelho", "ENGTYPE_2": "Municipality", "NL_NAME_2": null, "VARNAME_2": null }, "geometry": { "type": "Point", "coordinates": [ -8.04211, 41.27253 ] } },
{ "type": "Feature", "properties": { "ID_0": 182, "ISO": "PRT", "NAME_0": "Portugal", "ID_1": 15, "NAME_1": "Porto", "ID_2": 208, "NAME_2": "Baião", "HASC_2": "PT.PO.BA", "CCN_2": 0, "CCA_2": "1302", "TYPE_2": "Concelho", "ENGTYPE_2": "Municipality", "NL_NAME_2": null, "VARNAME_2": null }, "geometry": { "type": "Point", "coordinates": [ -7.98924, 41.15756 ] } },
{ "type": "Feature", "properties": { "ID_0": 182, "ISO": "PRT", "NAME_0": "Portugal", "ID_1": 15, "NAME_1": "Porto", "ID_2": 209, "NAME_2": "Felgueiras", "HASC_2": "PT.PO.FE", "CCN_2": 0, "CCA_2": "1303", "TYPE_2": "Concelho", "ENGTYPE_2": "Municipality", "NL_NAME_2": null, "VARNAME_2": null }, "geometry": { "type": "Point", "coordinates": [ -8.20157, 41.3506 ] } },
{ "type": "Feature", "properties": { "ID_0": 182, "ISO": "PRT", "NAME_0": "Portugal", "ID_1": 15, "NAME_1": "Porto", "ID_2": 210, "NAME_2": "Gondomar", "HASC_2": "PT.PO.GO", "CCN_2": 0, "CCA_2": "1304", "TYPE_2": "Concelho", "ENGTYPE_2": "Municipality", "NL_NAME_2": null, "VARNAME_2": null }, "geometry": { "type": "Point", "coordinates": [ -8.48297, 41.10958 ] } },
{ "type": "Feature", "properties": { "ID_0": 182, "ISO": "PRT", "NAME_0": "Portugal", "ID_1": 15, "NAME_1": "Porto", "ID_2": 211, "NAME_2": "Lousada", "HASC_2": "PT.PO.LO", "CCN_2": 0, "CCA_2": "1305", "TYPE_2": "Concelho", "ENGTYPE_2": "Municipality", "NL_NAME_2": null, "VARNAME_2": null }, "geometry": { "type": "Point", "coordinates": [ -8.27522, 41.28552 ] } },
{ "type": "Feature", "properties": { "ID_0": 182, "ISO": "PRT", "NAME_0": "Portugal", "ID_1": 15, "NAME_1": "Porto", "ID_2": 212, "NAME_2": "Maia", "HASC_2": "PT.PO.MI", "CCN_2": 0, "CCA_2": "1306", "TYPE_2": "Concelho", "ENGTYPE_2": "Municipality", "NL_NAME_2": null, "VARNAME_2": null }, "geometry": { "type": "Point", "coordinates": [ -8.60119, 41.24499 ] } },
{ "type": "Feature", "properties": { "ID_0": 182, "ISO": "PRT", "NAME_0": "Portugal", "ID_1": 15, "NAME_1": "Porto", "ID_2": 213, "NAME_2": "Marco de Canaveses", "HASC_2": "PT.PO.MC", "CCN_2": 0, "CCA_2": "1307", "TYPE_2": "Concelho", "ENGTYPE_2": "Municipality", "NL_NAME_2": null, "VARNAME_2": null }, "geometry": { "type": "Point", "coordinates": [ -8.1583, 41.15558 ] } },
{ "type": "Feature", "properties": { "ID_0": 182, "ISO": "PRT", "NAME_0": "Portugal", "ID_1": 15, "NAME_1": "Porto", "ID_2": 214, "NAME_2": "Matosinhos", "HASC_2": "PT.PO.MT", "CCN_2": 0, "CCA_2": "1308", "TYPE_2": "Concelho", "ENGTYPE_2": "Municipality", "NL_NAME_2": null, "VARNAME_2": null }, "geometry": { "type": "Point", "coordinates": [ -8.67071, 41.21274 ] } },
{ "type": "Feature", "properties": { "ID_0": 182, "ISO": "PRT", "NAME_0": "Portugal", "ID_1": 15, "NAME_1": "Porto", "ID_2": 215, "NAME_2": "Póvoa de Varzim", "HASC_2": "PT.PO.PV", "CCN_2": 0, "CCA_2": "1313", "TYPE_2": "Concelho", "ENGTYPE_2": "Municipality", "NL_NAME_2": null, "VARNAME_2": null }, "geometry": { "type": "Point", "coordinates": [ -8.71723, 41.41915 ] } },
{ "type": "Feature", "properties": { "ID_0": 182, "ISO": "PRT", "NAME_0": "Portugal", "ID_1": 15, "NAME_1": "Porto", "ID_2": 216, "NAME_2": "Paços de Ferreira", "HASC_2": "PT.PO.PF", "CCN_2": 0, "CCA_2": "1309", "TYPE_2": "Concelho", "ENGTYPE_2": "Municipality", "NL_NAME_2": null, "VARNAME_2": null }, "geometry": { "type": "Point", "coordinates": [ -8.37999, 41.28852 ] } },
{ "type": "Feature", "properties": { "ID_0": 182, "ISO": "PRT", "NAME_0": "Portugal", "ID_1": 15, "NAME_1": "Porto", "ID_2": 217, "NAME_2": "Paredes", "HASC_2": "PT.PO.PA", "CCN_2": 0, "CCA_2": "1310", "TYPE_2": "Concelho", "ENGTYPE_2": "Municipality", "NL_NAME_2": null, "VARNAME_2": null }, "geometry": { "type": "Point", "coordinates": [ -8.39612, 41.18152 ] } },
{ "type": "Feature", "properties": { "ID_0": 182, "ISO": "PRT", "NAME_0": "Portugal", "ID_1": 15, "NAME_1": "Porto", "ID_2": 218, "NAME_2": "Penafiel", "HASC_2": "PT.PO.PE", "CCN_2": 0, "CCA_2": "1311", "TYPE_2": "Concelho", "ENGTYPE_2": "Municipality", "NL_NAME_2": null, "VARNAME_2": null }, "geometry": { "type": "Point", "coordinates": [ -8.2938, 41.15063 ] } },
{ "type": "Feature", "properties": { "ID_0": 182, "ISO": "PRT", "NAME_0": "Portugal", "ID_1": 15, "NAME_1": "Porto", "ID_2": 219, "NAME_2": "Porto", "HASC_2": "PT.PO.PO", "CCN_2": 0, "CCA_2": "1312", "TYPE_2": "Concelho", "ENGTYPE_2": "Municipality", "NL_NAME_2": null, "VARNAME_2": null }, "geometry": { "type": "Point", "coordinates": [ -8.6208, 41.16175 ] } },
{ "type": "Feature", "properties": { "ID_0": 182, "ISO": "PRT", "NAME_0": "Portugal", "ID_1": 15, "NAME_1": "Porto", "ID_2": 220, "NAME_2": "Santo Tirso", "HASC_2": "PT.PO.ST", "CCN_2": 0, "CCA_2": "1314", "TYPE_2": "Concelho", "ENGTYPE_2": "Municipality", "NL_NAME_2": null, "VARNAME_2": null }, "geometry": { "type": "Point", "coordinates": [ -8.444, 41.32087 ] } },
{ "type": "Feature", "properties": { "ID_0": 182, "ISO": "PRT", "NAME_0": "Portugal", "ID_1": 15, "NAME_1": "Porto", "ID_2": 221, "NAME_2": "Trofa", "HASC_2": "PT.PO.TR", "CCN_2": 0, "CCA_2": "1318", "TYPE_2": "Concelho", "ENGTYPE_2": "Municipality", "NL_NAME_2": null, "VARNAME_2": null }, "geometry": { "type": "Point", "coordinates": [ -8.56733, 41.31142 ] } },
{ "type": "Feature", "properties": { "ID_0": 182, "ISO": "PRT", "NAME_0": "Portugal", "ID_1": 15, "NAME_1": "Porto", "ID_2": 222, "NAME_2": "Valongo", "HASC_2": "PT.PO.VA", "CCN_2": 0, "CCA_2": "1315", "TYPE_2": "Concelho", "ENGTYPE_2": "Municipality", "NL_NAME_2": null, "VARNAME_2": null }, "geometry": { "type": "Point", "coordinates": [ -8.49418, 41.20669 ] } },
{ "type": "Feature", "properties": { "ID_0": 182, "ISO": "PRT", "NAME_0": "Portugal", "ID_1": 15, "NAME_1": "Porto", "ID_2": 223, "NAME_2": "Vila do Conde", "HASC_2": "PT.PO.VC", "CCN_2": 0, "CCA_2": "1316", "TYPE_2": "Concelho", "ENGTYPE_2": "Municipality", "NL_NAME_2": null, "VARNAME_2": null }, "geometry": { "type": "Point", "coordinates": [ -8.6826, 41.33819 ] } },
{ "type": "Feature", "properties": { "ID_0": 182, "ISO": "PRT", "NAME_0": "Portugal", "ID_1": 15, "NAME_1": "Porto", "ID_2": 224, "NAME_2": "Vila Nova de Gaia", "HASC_2": "PT.PO.VG", "CCN_2": 0, "CCA_2": "1317", "TYPE_2": "Concelho", "ENGTYPE_2": "Municipality", "NL_NAME_2": null, "VARNAME_2": null }, "geometry": { "type": "Point", "coordinates": [ -8.58069, 41.07447 ] } },
{ "type": "Feature", "properties": { "ID_0": 182, "ISO": "PRT", "NAME_0": "Portugal", "ID_1": 16, "NAME_1": "Santarém", "ID_2": 225, "NAME_2": "Abrantes", "HASC_2": "PT.SA.AB", "CCN_2": 0, "CCA_2": "1401", "TYPE_2": "Concelho", "ENGTYPE_2": "Municipality", "NL_NAME_2": null, "VARNAME_2": null }, "geometry": { "type": "Point", "coordinates": [ -8.15785, 39.4263 ] } },
{ "type": "Feature", "properties": { "ID_0": 182, "ISO": "PRT", "NAME_0": "Portugal", "ID_1": 16, "NAME_1": "Santarém", "ID_2": 226, "NAME_2": "Alcanena", "HASC_2": "PT.SA.AC", "CCN_2": 0, "CCA_2": "1402", "TYPE_2": "Concelho", "ENGTYPE_2": "Municipality", "NL_NAME_2": null, "VARNAME_2": null }, "geometry": { "type": "Point", "coordinates": [ -8.6893, 39.47236 ] } },
{ "type": "Feature", "properties": { "ID_0": 182, "ISO": "PRT", "NAME_0": "Portugal", "ID_1": 16, "NAME_1": "Santarém", "ID_2": 227, "NAME_2": "Almeirim", "HASC_2": "PT.SA.AM", "CCN_2": 0, "CCA_2": "1403", "TYPE_2": "Concelho", "ENGTYPE_2": "Municipality", "NL_NAME_2": null, "VARNAME_2": null }, "geometry": { "type": "Point", "coordinates": [ -8.58, 39.15893 ] } },
{ "type": "Feature", "properties": { "ID_0": 182, "ISO": "PRT", "NAME_0": "Portugal", "ID_1": 16, "NAME_1": "Santarém", "ID_2": 228, "NAME_2": "Alpiarça", "HASC_2": "PT.SA.AP", "CCN_2": 0, "CCA_2": "1404", "TYPE_2": "Concelho", "ENGTYPE_2": "Municipality", "NL_NAME_2": null, "VARNAME_2": null }, "geometry": { "type": "Point", "coordinates": [ -8.57056, 39.24113 ] } },
{ "type": "Feature", "properties": { "ID_0": 182, "ISO": "PRT", "NAME_0": "Portugal", "ID_1": 16, "NAME_1": "Santarém", "ID_2": 229, "NAME_2": "Benavente", "HASC_2": "PT.SA.BE", "CCN_2": 0, "CCA_2": "1405", "TYPE_2": "Concelho", "ENGTYPE_2": "Municipality", "NL_NAME_2": null, "VARNAME_2": null }, "geometry": { "type": "Point", "coordinates": [ -8.81066, 38.86787 ] } },
{ "type": "Feature", "properties": { "ID_0": 182, "ISO": "PRT", "NAME_0": "Portugal", "ID_1": 16, "NAME_1": "Santarém", "ID_2": 230, "NAME_2": "Cartaxo", "HASC_2": "PT.SA.CA", "CCN_2": 0, "CCA_2": "1406", "TYPE_2": "Concelho", "ENGTYPE_2": "Municipality", "NL_NAME_2": null, "VARNAME_2": null }, "geometry": { "type": "Point", "coordinates": [ -8.78963, 39.14579 ] } },
{ "type": "Feature", "properties": { "ID_0": 182, "ISO": "PRT", "NAME_0": "Portugal", "ID_1": 16, "NAME_1": "Santarém", "ID_2": 231, "NAME_2": "Chamusca", "HASC_2": "PT.SA.CH", "CCN_2": 0, "CCA_2": "1407", "TYPE_2": "Concelho", "ENGTYPE_2": "Municipality", "NL_NAME_2": null, "VARNAME_2": null }, "geometry": { "type": "Point", "coordinates": [ -8.38036, 39.27163 ] } },
{ "type": "Feature", "properties": { "ID_0": 182, "ISO": "PRT", "NAME_0": "Portugal", "ID_1": 16, "NAME_1": "Santarém", "ID_2": 232, "NAME_2": "Constância", "HASC_2": "PT.SA.CN", "CCN_2": 0, "CCA_2": "1408", "TYPE_2": "Concelho", "ENGTYPE_2": "Municipality", "NL_NAME_2": null, "VARNAME_2": null }, "geometry": { "type": "Point", "coordinates": [ -8.2915, 39.4257 ] } },
{ "type": "Feature", "properties": { "ID_0": 182, "ISO": "PRT", "NAME_0": "Portugal", "ID_1": 16, "NAME_1": "Santarém", "ID_2": 233, "NAME_2": "Coruche", "HASC_2": "PT.SA.CR", "CCN_2": 0, "CCA_2": "1409", "TYPE_2": "Concelho", "ENGTYPE_2": "Municipality", "NL_NAME_2": null, "VARNAME_2": null }, "geometry": { "type": "Point", "coordinates": [ -8.44753, 38.94022 ] } },
{ "type": "Feature", "properties": { "ID_0": 182, "ISO": "PRT", "NAME_0": "Portugal", "ID_1": 16, "NAME_1": "Santarém", "ID_2": 234, "NAME_2": "Entroncamento", "HASC_2": "PT.SA.EN", "CCN_2": 0, "CCA_2": "1410", "TYPE_2": "Concelho", "ENGTYPE_2": "Municipality", "NL_NAME_2": null, "VARNAME_2": null }, "geometry": { "type": "Point", "coordinates": [ -8.47866, 39.46436 ] } },
{ "type": "Feature", "properties": { "ID_0": 182, "ISO": "PRT", "NAME_0": "Portugal", "ID_1": 16, "NAME_1": "Santarém", "ID_2": 235, "NAME_2": "Ferreira do Zêzere", "HASC_2": "PT.SA.FZ", "CCN_2": 0, "CCA_2": "1411", "TYPE_2": "Concelho", "ENGTYPE_2": "Municipality", "NL_NAME_2": null, "VARNAME_2": null }, "geometry": { "type": "Point", "coordinates": [ -8.31688, 39.72136 ] } },
{ "type": "Feature", "properties": { "ID_0": 182, "ISO": "PRT", "NAME_0": "Portugal", "ID_1": 16, "NAME_1": "Santarém", "ID_2": 236, "NAME_2": "Golegã", "HASC_2": "PT.SA.GO", "CCN_2": 0, "CCA_2": "1412", "TYPE_2": "Concelho", "ENGTYPE_2": "Municipality", "NL_NAME_2": null, "VARNAME_2": null }, "geometry": { "type": "Point", "coordinates": [ -8.50564, 39.38684 ] } },
{ "type": "Feature", "properties": { "ID_0": 182, "ISO": "PRT", "NAME_0": "Portugal", "ID_1": 16, "NAME_1": "Santarém", "ID_2": 237, "NAME_2": "Mação", "HASC_2": "PT.SA.MA", "CCN_2": 0, "CCA_2": "1413", "TYPE_2": "Concelho", "ENGTYPE_2": "Municipality", "NL_NAME_2": null, "VARNAME_2": null }, "geometry": { "type": "Point", "coordinates": [ -7.97488, 39.60517 ] } },
{ "type": "Feature", "properties": { "ID_0": 182, "ISO": "PRT", "NAME_0": "Portugal", "ID_1": 16, "NAME_1": "Santarém", "ID_2": 238, "NAME_2": "Ourém", "HASC_2": "PT.SA.OU", "CCN_2": 0, "CCA_2": "1421", "TYPE_2": "Concelho", "ENGTYPE_2": "Municipality", "NL_NAME_2": null, "VARNAME_2": null }, "geometry": { "type": "Point", "coordinates": [ -8.57425, 39.69234 ] } },
{ "type": "Feature", "properties": { "ID_0": 182, "ISO": "PRT", "NAME_0": "Portugal", "ID_1": 16, "NAME_1": "Santarém", "ID_2": 239, "NAME_2": "Rio Maior", "HASC_2": "PT.SA.RM", "CCN_2": 0, "CCA_2": "1414", "TYPE_2": "Concelho", "ENGTYPE_2": "Municipality", "NL_NAME_2": null, "VARNAME_2": null }, "geometry": { "type": "Point", "coordinates": [ -8.90143, 39.32893 ] } },
{ "type": "Feature", "properties": { "ID_0": 182, "ISO": "PRT", "NAME_0": "Portugal", "ID_1": 16, "NAME_1": "Santarém", "ID_2": 240, "NAME_2": "Salvaterra de Magos", "HASC_2": "PT.SA.SM", "CCN_2": 0, "CCA_2": "1415", "TYPE_2": "Concelho", "ENGTYPE_2": "Municipality", "NL_NAME_2": null, "VARNAME_2": null }, "geometry": { "type": "Point", "coordinates": [ -8.68781, 39.04673 ] } },
{ "type": "Feature", "properties": { "ID_0": 182, "ISO": "PRT", "NAME_0": "Portugal", "ID_1": 16, "NAME_1": "Santarém", "ID_2": 241, "NAME_2": "Santarém", "HASC_2": "PT.SA.SA", "CCN_2": 0, "CCA_2": "1416", "TYPE_2": "Concelho", "ENGTYPE_2": "Municipality", "NL_NAME_2": null, "VARNAME_2": null }, "geometry": { "type": "Point", "coordinates": [ -8.72694, 39.33696 ] } },
{ "type": "Feature", "properties": { "ID_0": 182, "ISO": "PRT", "NAME_0": "Portugal", "ID_1": 16, "NAME_1": "Santarém", "ID_2": 242, "NAME_2": "Sardoal", "HASC_2": "PT.SA.SD", "CCN_2": 0, "CCA_2": "1417", "TYPE_2": "Concelho", "ENGTYPE_2": "Municipality", "NL_NAME_2": null, "VARNAME_2": null }, "geometry": { "type": "Point", "coordinates": [ -8.13851, 39.56297 ] } },
{ "type": "Feature", "properties": { "ID_0": 182, "ISO": "PRT", "NAME_0": "Portugal", "ID_1": 16, "NAME_1": "Santarém", "ID_2": 243, "NAME_2": "Tomar", "HASC_2": "PT.SA.TM", "CCN_2": 0, "CCA_2": "1418", "TYPE_2": "Concelho", "ENGTYPE_2": "Municipality", "NL_NAME_2": null, "VARNAME_2": null }, "geometry": { "type": "Point", "coordinates": [ -8.38676, 39.6029 ] } },
{ "type": "Feature", "properties": { "ID_0": 182, "ISO": "PRT", "NAME_0": "Portugal", "ID_1": 16, "NAME_1": "Santarém", "ID_2": 244, "NAME_2": "Torres Novas", "HASC_2": "PT.SA.TN", "CCN_2": 0, "CCA_2": "1419", "TYPE_2": "Concelho", "ENGTYPE_2": "Municipality", "NL_NAME_2": null, "VARNAME_2": null }, "geometry": { "type": "Point", "coordinates": [ -8.55082, 39.50555 ] } },
{ "type": "Feature", "properties": { "ID_0": 182, "ISO": "PRT", "NAME_0": "Portugal", "ID_1": 16, "NAME_1": "Santarém", "ID_2": 245, "NAME_2": "Vila Nova da Barquinha", "HASC_2": "PT.SA.VB", "CCN_2": 0, "CCA_2": "1420", "TYPE_2": "Concelho", "ENGTYPE_2": "Municipality", "NL_NAME_2": null, "VARNAME_2": null }, "geometry": { "type": "Point", "coordinates": [ -8.40039, 39.48166 ] } },
{ "type": "Feature", "properties": { "ID_0": 182, "ISO": "PRT", "NAME_0": "Portugal", "ID_1": 17, "NAME_1": "Setúbal", "ID_2": 246, "NAME_2": "Alcácer do Sal", "HASC_2": "PT.SE.AS", "CCN_2": 0, "CCA_2": "1501", "TYPE_2": "Concelho", "ENGTYPE_2": "Municipality", "NL_NAME_2": null, "VARNAME_2": null }, "geometry": { "type": "Point", "coordinates": [ -8.47032, 38.36655 ] } },
{ "type": "Feature", "properties": { "ID_0": 182, "ISO": "PRT", "NAME_0": "Portugal", "ID_1": 17, "NAME_1": "Setúbal", "ID_2": 247, "NAME_2": "Alcochete", "HASC_2": "PT.SE.AC", "CCN_2": 0, "CCA_2": "1502", "TYPE_2": "Concelho", "ENGTYPE_2": "Municipality", "NL_NAME_2": null, "VARNAME_2": null }, "geometry": { "type": "Point", "coordinates": [ -8.8952, 38.72187 ] } },
{ "type": "Feature", "properties": { "ID_0": 182, "ISO": "PRT", "NAME_0": "Portugal", "ID_1": 17, "NAME_1": "Setúbal", "ID_2": 248, "NAME_2": "Almada", "HASC_2": "PT.SE.AM", "CCN_2": 0, "CCA_2": "1503", "TYPE_2": "Concelho", "ENGTYPE_2": "Municipality", "NL_NAME_2": null, "VARNAME_2": null }, "geometry": { "type": "Point", "coordinates": [ -9.19302, 38.63561 ] } },
{ "type": "Feature", "properties": { "ID_0": 182, "ISO": "PRT", "NAME_0": "Portugal", "ID_1": 17, "NAME_1": "Setúbal", "ID_2": 249, "NAME_2": "Barreiro", "HASC_2": "PT.SE.BA", "CCN_2": 0, "CCA_2": "1504", "TYPE_2": "Concelho", "ENGTYPE_2": "Municipality", "NL_NAME_2": null, "VARNAME_2": null }, "geometry": { "type": "Point", "coordinates": [ -9.04271, 38.62508 ] } },
{ "type": "Feature", "properties": { "ID_0": 182, "ISO": "PRT", "NAME_0": "Portugal", "ID_1": 17, "NAME_1": "Setúbal", "ID_2": 250, "NAME_2": "Grândola", "HASC_2": "PT.SE.GR", "CCN_2": 0, "CCA_2": "1505", "TYPE_2": "Concelho", "ENGTYPE_2": "Municipality", "NL_NAME_2": null, "VARNAME_2": null }, "geometry": { "type": "Point", "coordinates": [ -8.57419, 38.17843 ] } },
{ "type": "Feature", "properties": { "ID_0": 182, "ISO": "PRT", "NAME_0": "Portugal", "ID_1": 17, "NAME_1": "Setúbal", "ID_2": 251, "NAME_2": "Moita", "HASC_2": "PT.SE.MT", "CCN_2": 0, "CCA_2": "1506", "TYPE_2": "Concelho", "ENGTYPE_2": "Municipality", "NL_NAME_2": null, "VARNAME_2": null }, "geometry": { "type": "Point", "coordinates": [ -8.99761, 38.64758 ] } },
{ "type": "Feature", "properties": { "ID_0": 182, "ISO": "PRT", "NAME_0": "Portugal", "ID_1": 17, "NAME_1": "Setúbal", "ID_2": 252, "NAME_2": "Montijo", "HASC_2": "PT.SE.MN", "CCN_2": 0, "CCA_2": "1507", "TYPE_2": "Concelho", "ENGTYPE_2": "Municipality", "NL_NAME_2": null, "VARNAME_2": null }, "geometry": { "type": "Point", "coordinates": [ -8.68934, 38.73036 ] } },
{ "type": "Feature", "properties": { "ID_0": 182, "ISO": "PRT", "NAME_0": "Portugal", "ID_1": 17, "NAME_1": "Setúbal", "ID_2": 253, "NAME_2": "Palmela", "HASC_2": "PT.SE.PA", "CCN_2": 0, "CCA_2": "1508", "TYPE_2": "Concelho", "ENGTYPE_2": "Municipality", "NL_NAME_2": null, "VARNAME_2": null }, "geometry": { "type": "Point", "coordinates": [ -8.80726, 38.61861 ] } },
{ "type": "Feature", "properties": { "ID_0": 182, "ISO": "PRT", "NAME_0": "Portugal", "ID_1": 17, "NAME_1": "Setúbal", "ID_2": 254, "NAME_2": "Santiago do Cacém", "HASC_2": "PT.SE.SC", "CCN_2": 0, "CCA_2": "1509", "TYPE_2": "Concelho", "ENGTYPE_2": "Municipality", "NL_NAME_2": null, "VARNAME_2": null }, "geometry": { "type": "Point", "coordinates": [ -8.568, 37.9531 ] } },
{ "type": "Feature", "properties": { "ID_0": 182, "ISO": "PRT", "NAME_0": "Portugal", "ID_1": 17, "NAME_1": "Setúbal", "ID_2": 255, "NAME_2": "Seixal", "HASC_2": "PT.SE.SX", "CCN_2": 0, "CCA_2": "1510", "TYPE_2": "Concelho", "ENGTYPE_2": "Municipality", "NL_NAME_2": null, "VARNAME_2": null }, "geometry": { "type": "Point", "coordinates": [ -9.10957, 38.60199 ] } },
{ "type": "Feature", "properties": { "ID_0": 182, "ISO": "PRT", "NAME_0": "Portugal", "ID_1": 17, "NAME_1": "Setúbal", "ID_2": 256, "NAME_2": "Sesimbra", "HASC_2": "PT.SE.SS", "CCN_2": 0, "CCA_2": "1511", "TYPE_2": "Concelho", "ENGTYPE_2": "Municipality", "NL_NAME_2": null, "VARNAME_2": null }, "geometry": { "type": "Point", "coordinates": [ -9.11981, 38.49462 ] } },
{ "type": "Feature", "properties": { "ID_0": 182, "ISO": "PRT", "NAME_0": "Portugal", "ID_1": 17, "NAME_1": "Setúbal", "ID_2": 257, "NAME_2": "Setúbal", "HASC_2": "PT.SE.SE", "CCN_2": 0, "CCA_2": "1512", "TYPE_2": "Concelho", "ENGTYPE_2": "Municipality", "NL_NAME_2": null, "VARNAME_2": null }, "geometry": { "type": "Point", "coordinates": [ -8.9079, 38.52075 ] } },
{ "type": "Feature", "properties": { "ID_0": 182, "ISO": "PRT", "NAME_0": "Portugal", "ID_1": 17, "NAME_1": "Setúbal", "ID_2": 258, "NAME_2": "Sines", "HASC_2": "PT.SE.SI", "CCN_2": 0, "CCA_2": "1513", "TYPE_2": "Concelho", "ENGTYPE_2": "Municipality", "NL_NAME_2": null, "VARNAME_2": null }, "geometry": { "type": "Point", "coordinates": [ -8.77716, 37.92447 ] } },
{ "type": "Feature", "properties": { "ID_0": 182, "ISO": "PRT", "NAME_0": "Portugal", "ID_1": 18, "NAME_1": "Viana do Castelo", "ID_2": 259, "NAME_2": "Arcos de Valdevez", "HASC_2": "PT.VC.AV", "CCN_2": 0, "CCA_2": "1601", "TYPE_2": "Concelho", "ENGTYPE_2": "Municipality", "NL_NAME_2": null, "VARNAME_2": null }, "geometry": { "type": "Point", "coordinates": [ -8.36449, 41.90286 ] } },
{ "type": "Feature", "properties": { "ID_0": 182, "ISO": "PRT", "NAME_0": "Portugal", "ID_1": 18, "NAME_1": "Viana do Castelo", "ID_2": 260, "NAME_2": "Caminha", "HASC_2": "PT.VC.CA", "CCN_2": 0, "CCA_2": "1602", "TYPE_2": "Concelho", "ENGTYPE_2": "Municipality", "NL_NAME_2": null, "VARNAME_2": null }, "geometry": { "type": "Point", "coordinates": [ -8.79073, 41.84772 ] } },
{ "type": "Feature", "properties": { "ID_0": 182, "ISO": "PRT", "NAME_0": "Portugal", "ID_1": 18, "NAME_1": "Viana do Castelo", "ID_2": 261, "NAME_2": "Melgaço", "HASC_2": "PT.VC.ME", "CCN_2": 0, "CCA_2": "1603", "TYPE_2": "Concelho", "ENGTYPE_2": "Municipality", "NL_NAME_2": null, "VARNAME_2": null }, "geometry": { "type": "Point", "coordinates": [ -8.21329, 42.04963 ] } },
{ "type": "Feature", "properties": { "ID_0": 182, "ISO": "PRT", "NAME_0": "Portugal", "ID_1": 18, "NAME_1": "Viana do Castelo", "ID_2": 262, "NAME_2": "Monção", "HASC_2": "PT.VC.MO", "CCN_2": 0, "CCA_2": "1604", "TYPE_2": "Concelho", "ENGTYPE_2": "Municipality", "NL_NAME_2": null, "VARNAME_2": null }, "geometry": { "type": "Point", "coordinates": [ -8.42634, 42.02725 ] } },
{ "type": "Feature", "properties": { "ID_0": 182, "ISO": "PRT", "NAME_0": "Portugal", "ID_1": 18, "NAME_1": "Viana do Castelo", "ID_2": 263, "NAME_2": "Paredes de Coura", "HASC_2": "PT.VC.PC", "CCN_2": 0, "CCA_2": "1605", "TYPE_2": "Concelho", "ENGTYPE_2": "Municipality", "NL_NAME_2": null, "VARNAME_2": null }, "geometry": { "type": "Point", "coordinates": [ -8.57209, 41.91019 ] } },
{ "type": "Feature", "properties": { "ID_0": 182, "ISO": "PRT", "NAME_0": "Portugal", "ID_1": 18, "NAME_1": "Viana do Castelo", "ID_2": 264, "NAME_2": "Ponte da Barca", "HASC_2": "PT.VC.PB", "CCN_2": 0, "CCA_2": "1606", "TYPE_2": "Concelho", "ENGTYPE_2": "Municipality", "NL_NAME_2": null, "VARNAME_2": null }, "geometry": { "type": "Point", "coordinates": [ -8.30983, 41.80673 ] } },
{ "type": "Feature", "properties": { "ID_0": 182, "ISO": "PRT", "NAME_0": "Portugal", "ID_1": 18, "NAME_1": "Viana do Castelo", "ID_2": 265, "NAME_2": "Ponte de Lima", "HASC_2": "PT.VC.PL", "CCN_2": 0, "CCA_2": "1607", "TYPE_2": "Concelho", "ENGTYPE_2": "Municipality", "NL_NAME_2": null, "VARNAME_2": null }, "geometry": { "type": "Point", "coordinates": [ -8.58749, 41.75743 ] } },
{ "type": "Feature", "properties": { "ID_0": 182, "ISO": "PRT", "NAME_0": "Portugal", "ID_1": 18, "NAME_1": "Viana do Castelo", "ID_2": 266, "NAME_2": "Valença", "HASC_2": "PT.VC.VA", "CCN_2": 0, "CCA_2": "1608", "TYPE_2": "Concelho", "ENGTYPE_2": "Municipality", "NL_NAME_2": null, "VARNAME_2": null }, "geometry": { "type": "Point", "coordinates": [ -8.60633, 41.99832 ] } },
{ "type": "Feature", "properties": { "ID_0": 182, "ISO": "PRT", "NAME_0": "Portugal", "ID_1": 18, "NAME_1": "Viana do Castelo", "ID_2": 267, "NAME_2": "Viana do Castelo", "HASC_2": "PT.VC.VC", "CCN_2": 0, "CCA_2": "1609", "TYPE_2": "Concelho", "ENGTYPE_2": "Municipality", "NL_NAME_2": null, "VARNAME_2": null },